<data><record><baths>1</baths><beds>2</beds><city>SACRAMENTO</city><latitude>38.631913</latitude><longitude>-121.434879</longitude><price>59222</price><sale_date>Wed May 21 00:00:00 EDT 2008</sale_date><sq__ft>836</sq__ft><state>CA</state><street>3526 HIGH ST</street><type>Residential</type><zip>95838</zip></record><record><baths>1</baths><beds>3</beds><city>SACRAMENTO</city><latitude>38.478902</latitude><longitude>-121.431028</longitude><price>68212</price><sale_date>Wed May 21 00:00:00 EDT 2008</sale_date><sq__ft>1167</sq__ft><state>CA</state><street>51 OMAHA CT</street><type>Residential</type><zip>95823</zip></record><record><baths>1</baths><beds>2</beds><city>SACRAMENTO</city><latitude>38.618305</latitude><longitude>-121.443839</longitude><price>68880</price><sale_date>Wed May 21 00:00:00 EDT 2008</sale_date><sq__ft>796</sq__ft><state>CA</state><street>2796 BRANCH ST</street><type>Residential</type><zip>95815</zip></record><record><baths>1</baths><beds>2</beds><city>SACRAMENTO</city><latitude>38.616835</latitude><longitude>-121.439146</longitude><price>69307</price><sale_date>Wed May 21 00:00:00 EDT 2008</sale_date><sq__ft>852</sq__ft><state>CA</state><street>2805 JANETTE WAY</street><type>Residential</type><zip>95815</zip></record><record><baths>1</baths><beds>2</beds><city>SACRAMENTO</city><latitude>38.51947</latitude><longitude>-121.435768</longitude><price>81900</price><sale_date>Wed May 21 00:00:00 EDT 2008</sale_date><sq__ft>797</sq__ft><state>CA</state><street>6001 MCMAHON DR</street><type>Residential</type><zip>95824</zip></record><record><baths>1</baths><beds>3</beds><city>SACRAMENTO</city><latitude>38.662595</latitude><longitude>-121.327813</longitude><price>89921</price><sale_date>Wed May 21 00:00:00 EDT 2008</sale_date><sq__ft>1122</sq__ft><state>CA</state><street>5828 PEPPERMILL CT</street><type>Condo</type><zip>95841</zip></record><record><baths>2</baths><beds>3</beds><city>SACRAMENTO</city><latitude>38.681659</latitude><longitude>-121.351705</longitude><price>90895</price><sale_date>Wed May 21 00:00:00 EDT 2008</sale_date><sq__ft>1104</sq__ft><state>CA</state><street>6048 OGDEN NASH WAY</street><type>Residential</type><zip>95842</zip></record><record><baths>1</baths><beds>3</beds><city>SACRAMENTO</city><latitude>38.535092</latitude><longitude>-121.481367</longitude><price>91002</price><sale_date>Wed May 21 00:00:00 EDT 2008</sale_date><sq__ft>1177</sq__ft><state>CA</state><street>2561 19TH AVE</street><type>Residential</type><zip>95820</zip></record><record><baths>2</baths><beds>2</beds><city>RANCHO CORDOVA</city><latitude>38.621188</latitude><longitude>-121.270555</longitude><price>94905</price><sale_date>Wed May 21 00:00:00 EDT 2008</sale_date><sq__ft>941</sq__ft><state>CA</state><street>11150 TRINITY RIVER DR Unit 114</street><type>Condo</type><zip>95670</zip></record><record><baths>2</baths><beds>3</beds><city>RIO LINDA</city><latitude>38.700909</latitude><longitude>-121.442979</longitude><price>98937</price><sale_date>Wed May 21 00:00:00 EDT 2008</sale_date><sq__ft>1146</sq__ft><state>CA</state><street>7325 10TH ST</street><type>Residential</type><zip>95673</zip></record><record><baths>2</baths><beds>3</beds><city>SACRAMENTO</city><latitude>38.637663</latitude><longitude>-121.45152</longitude><price>100309</price><sale_date>Wed May 21 00:00:00 EDT 2008</sale_date><sq__ft>909</sq__ft><state>CA</state><street>645 MORRISON AVE</street><type>Residential</type><zip>95838</zip></record><record><baths>2</baths><beds>3</beds><city>SACRAMENTO</city><latitude>38.470746</latitude><longitude>-121.458918</longitude><price>106250</price><sale_date>Wed May 21 00:00:00 EDT 2008</sale_date><sq__ft>1289</sq__ft><state>CA</state><street>4085 FAWN CIR</street><type>Residential</type><zip>95823</zip></record><record><baths>1</baths><beds>1</beds><city>SACRAMENTO</city><latitude>38.618698</latitude><longitude>-121.435833</longitude><price>106852</price><sale_date>Wed May 21 00:00:00 EDT 2008</sale_date><sq__ft>871</sq__ft><state>CA</state><street>2930 LA ROSA RD</street><type>Residential</type><zip>95815</zip></record><record><baths>1</baths><beds>3</beds><city>SACRAMENTO</city><latitude>38.482215</latitude><longitude>-121.492603</longitude><price>107502</price><sale_date>Wed May 21 00:00:00 EDT 2008</sale_date><sq__ft>1020</sq__ft><state>CA</state><street>2113 KIRK WAY</street><type>Residential</type><zip>95822</zip></record><record><baths>2</baths><beds>2</beds><city>SACRAMENTO</city><latitude>38.672914</latitude><longitude>-121.35934</longitude><price>108750</price><sale_date>Wed May 21 00:00:00 EDT 2008</sale_date><sq__ft>1022</sq__ft><state>CA</state><street>4533 LOCH HAVEN WAY</street><type>Residential</type><zip>95842</zip></record><record><baths>2</baths><beds>2</beds><city>SACRAMENTO</city><latitude>38.700051</latitude><longitude>-121.351278</longitude><price>110700</price><sale_date>Wed May 21 00:00:00 EDT 2008</sale_date><sq__ft>1134</sq__ft><state>CA</state><street>7340 HAMDEN PL</street><type>Condo</type><zip>95842</zip></record><record><baths>1</baths><beds>2</beds><city>RIO LINDA</city><latitude>38.689591</latitude><longitude>-121.452239</longitude><price>113263</price><sale_date>Wed May 21 00:00:00 EDT 2008</sale_date><sq__ft>844</sq__ft><state>CA</state><street>6715 6TH ST</street><type>Residential</type><zip>95673</zip></record><record><baths>1</baths><beds>2</beds><city>CITRUS HEIGHTS</city><latitude>38.679776</latitude><longitude>-121.314089</longitude><price>116250</price><sale_date>Wed May 21 00:00:00 EDT 2008</sale_date><sq__ft>795</sq__ft><state>CA</state><street>6236 LONGFORD DR Unit 1</street><type>Condo</type><zip>95621</zip></record><record><baths>1</baths><beds>2</beds><city>SACRAMENTO</city><latitude>38.612099</latitude><longitude>-121.469095</longitude><price>120000</price><sale_date>Wed May 21 00:00:00 EDT 2008</sale_date><sq__ft>588</sq__ft><state>CA</state><street>250 PERALTA AVE</street><type>Residential</type><zip>95833</zip></record><record><baths>2</baths><beds>3</beds><city>RIO LINDA</city><latitude>38.689999</latitude><longitude>-121.46322</longitude><price>121630</price><sale_date>Wed May 21 00:00:00 EDT 2008</sale_date><sq__ft>1356</sq__ft><state>CA</state><street>113 LEEWILL AVE</street><type>Residential</type><zip>95673</zip></record><record><baths>2</baths><beds>3</beds><city>CITRUS HEIGHTS</city><latitude>38.707851</latitude><longitude>-121.320707</longitude><price>122000</price><sale_date>Wed May 21 00:00:00 EDT 2008</sale_date><sq__ft>1118</sq__ft><state>CA</state><street>6118 STONEHAND AVE</street><type>Residential</type><zip>95621</zip></record><record><baths>2</baths><beds>4</beds><city>SACRAMENTO</city><latitude>38.468173</latitude><longitude>-121.444071</longitude><price>122682</price><sale_date>Wed May 21 00:00:00 EDT 2008</sale_date><sq__ft>1329</sq__ft><state>CA</state><street>4882 BANDALIN WAY</street><type>Residential</type><zip>95823</zip></record><record><baths>2</baths><beds>4</beds><city>NORTH HIGHLANDS</city><latitude>38.702792</latitude><longitude>-121.38221</longitude><price>123000</price><sale_date>Wed May 21 00:00:00 EDT 2008</sale_date><sq__ft>1240</sq__ft><state>CA</state><street>7511 OAKVALE CT</street><type>Residential</type><zip>95660</zip></record><record><baths>2</baths><beds>3</beds><city>SACRAMENTO</city><latitude>38.628631</latitude><longitude>-121.488097</longitude><price>124100</price><sale_date>Wed May 21 00:00:00 EDT 2008</sale_date><sq__ft>1601</sq__ft><state>CA</state><street>9 PASTURE CT</street><type>Residential</type><zip>95834</zip></record><record><baths>2</baths><beds>3</beds><city>NORTH HIGHLANDS</city><latitude>38.701499</latitude><longitude>-121.37622</longitude><price>125000</price><sale_date>Wed May 21 00:00:00 EDT 2008</sale_date><sq__ft>901</sq__ft><state>CA</state><street>3729 BAINBRIDGE DR</street><type>Residential</type><zip>95660</zip></record><record><baths>2</baths><beds>3</beds><city>ANTELOPE</city><latitude>38.70974</latitude><longitude>-121.37377</longitude><price>126640</price><sale_date>Wed May 21 00:00:00 EDT 2008</sale_date><sq__ft>1088</sq__ft><state>CA</state><street>3828 BLACKFOOT WAY</street><type>Residential</type><zip>95843</zip></record><record><baths>1</baths><beds>3</beds><city>SACRAMENTO</city><latitude>38.537526</latitude><longitude>-121.478315</longitude><price>127281</price><sale_date>Wed May 21 00:00:00 EDT 2008</sale_date><sq__ft>963</sq__ft><state>CA</state><street>4108 NORTON WAY</street><type>Residential</type><zip>95820</zip></record><record><baths>2</baths><beds>3</beds><city>SACRAMENTO</city><latitude>38.476472</latitude><longitude>-121.501711</longitude><price>129000</price><sale_date>Wed May 21 00:00:00 EDT 2008</sale_date><sq__ft>1119</sq__ft><state>CA</state><street>1469 JANRICK AVE</street><type>Residential</type><zip>95832</zip></record><record><baths>2</baths><beds>4</beds><city>SACRAMENTO</city><latitude>38.558423</latitude><longitude>-121.327948</longitude><price>131200</price><sale_date>Wed May 21 00:00:00 EDT 2008</sale_date><sq__ft>1380</sq__ft><state>CA</state><street>9861 CULP WAY</street><type>Residential</type><zip>95827</zip></record><record><baths>2</baths><beds>3</beds><city>SACRAMENTO</city><latitude>38.472122</latitude><longitude>-121.404199</longitude><price>132000</price><sale_date>Wed May 21 00:00:00 EDT 2008</sale_date><sq__ft>1248</sq__ft><state>CA</state><street>7825 CREEK VALLEY CIR</street><type>Residential</type><zip>95828</zip></record><record><baths>2</baths><beds>2</beds><city>ELK GROVE</city><latitude>38.423251</latitude><longitude>-121.444489</longitude><price>133000</price><sale_date>Wed May 21 00:00:00 EDT 2008</sale_date><sq__ft>1039</sq__ft><state>CA</state><street>5201 LAGUNA OAKS DR Unit 140</street><type>Condo</type><zip>95758</zip></record><record><baths>2</baths><beds>3</beds><city>NORTH HIGHLANDS</city><latitude>38.691161</latitude><longitude>-121.37192</longitude><price>134555</price><sale_date>Wed May 21 00:00:00 EDT 2008</sale_date><sq__ft>1152</sq__ft><state>CA</state><street>6768 MEDORA DR</street><type>Residential</type><zip>95660</zip></record><record><baths>2</baths><beds>3</beds><city>SACRAMENTO</city><latitude>38.566663</latitude><longitude>-121.332644</longitude><price>136500</price><sale_date>Wed May 21 00:00:00 EDT 2008</sale_date><sq__ft>1380</sq__ft><state>CA</state><street>3100 EXPLORER DR</street><type>Residential</type><zip>95827</zip></record><record><baths>2</baths><beds>3</beds><city>ELVERTA</city><latitude>38.713182</latitude><longitude>-121.411227</longitude><price>138750</price><sale_date>Wed May 21 00:00:00 EDT 2008</sale_date><sq__ft>1116</sq__ft><state>CA</state><street>7944 DOMINION WAY</street><type>Residential</type><zip>95626</zip></record><record><baths>2</baths><beds>2</beds><city>ELK GROVE</city><latitude>38.423251</latitude><longitude>-121.444489</longitude><price>141000</price><sale_date>Wed May 21 00:00:00 EDT 2008</sale_date><sq__ft>1039</sq__ft><state>CA</state><street>5201 LAGUNA OAKS DR Unit 162</street><type>Condo</type><zip>95758</zip></record><record><baths>2</baths><beds>3</beds><city>SACRAMENTO</city><latitude>38.48742</latitude><longitude>-121.462459</longitude><price>146250</price><sale_date>Wed May 21 00:00:00 EDT 2008</sale_date><sq__ft>1418</sq__ft><state>CA</state><street>3920 SHINING STAR DR</street><type>Residential</type><zip>95823</zip></record><record><baths>2</baths><beds>3</beds><city>NORTH HIGHLANDS</city><latitude>38.658246</latitude><longitude>-121.375469</longitude><price>147308</price><sale_date>Wed May 21 00:00:00 EDT 2008</sale_date><sq__ft>1082</sq__ft><state>CA</state><street>5031 CORVAIR ST</street><type>Residential</type><zip>95660</zip></record><record><baths>2</baths><beds>4</beds><city>SACRAMENTO</city><latitude>38.479553</latitude><longitude>-121.463317</longitude><price>148750</price><sale_date>Wed May 21 00:00:00 EDT 2008</sale_date><sq__ft>1472</sq__ft><state>CA</state><street>7661 NIXOS WAY</street><type>Residential</type><zip>95823</zip></record><record><baths>2</baths><beds>4</beds><city>SACRAMENTO</city><latitude>38.49857</latitude><longitude>-121.420925</longitude><price>149593</price><sale_date>Wed May 21 00:00:00 EDT 2008</sale_date><sq__ft>1146</sq__ft><state>CA</state><street>7044 CARTHY WAY</street><type>Residential</type><zip>95828</zip></record><record><baths>1</baths><beds>1</beds><city>SACRAMENTO</city><latitude>38.58514</latitude><longitude>-121.403736</longitude><price>150000</price><sale_date>Wed May 21 00:00:00 EDT 2008</sale_date><sq__ft>760</sq__ft><state>CA</state><street>2442 LARKSPUR LN</street><type>Condo</type><zip>95825</zip></record><record><baths>2</baths><beds>2</beds><city>SACRAMENTO</city><latitude>38.658812</latitude><longitude>-121.542345</longitude><price>152000</price><sale_date>Wed May 21 00:00:00 EDT 2008</sale_date><sq__ft>1304</sq__ft><state>CA</state><street>4800 WESTLAKE PKWY Unit 2109</street><type>Condo</type><zip>95835</zip></record><record><baths>2</baths><beds>3</beds><city>SACRAMENTO</city><latitude>38.493955</latitude><longitude>-121.48966</longitude><price>154000</price><sale_date>Wed May 21 00:00:00 EDT 2008</sale_date><sq__ft>1207</sq__ft><state>CA</state><street>2178 63RD AVE</street><type>Residential</type><zip>95822</zip></record><record><baths>2</baths><beds>3</beds><city>ELK GROVE</city><latitude>38.41653</latitude><longitude>-121.379653</longitude><price>156896</price><sale_date>Wed May 21 00:00:00 EDT 2008</sale_date><sq__ft>1056</sq__ft><state>CA</state><street>8718 ELK WAY</street><type>Residential</type><zip>95624</zip></record><record><baths>2</baths><beds>2</beds><city>ANTELOPE</city><latitude>38.72027</latitude><longitude>-121.331555</longitude><price>161250</price><sale_date>Wed May 21 00:00:00 EDT 2008</sale_date><sq__ft>1043</sq__ft><state>CA</state><street>5708 RIDGEPOINT DR</street><type>Residential</type><zip>95843</zip></record><record><baths>2</baths><beds>4</beds><city>NORTH HIGHLANDS</city><latitude>38.699251</latitude><longitude>-121.371414</longitude><price>161500</price><sale_date>Wed May 21 00:00:00 EDT 2008</sale_date><sq__ft>1587</sq__ft><state>CA</state><street>7315 KOALA CT</street><type>Residential</type><zip>95660</zip></record><record><baths>1</baths><beds>4</beds><city>SACRAMENTO</city><latitude>38.613765</latitude><longitude>-121.488694</longitude><price>164000</price><sale_date>Wed May 21 00:00:00 EDT 2008</sale_date><sq__ft>1120</sq__ft><state>CA</state><street>2622 ERIN DR</street><type>Residential</type><zip>95833</zip></record><record><baths>2</baths><beds>4</beds><city>SACRAMENTO</city><latitude>38.450543</latitude><longitude>-121.432538</longitude><price>165000</price><sale_date>Wed May 21 00:00:00 EDT 2008</sale_date><sq__ft>1580</sq__ft><state>CA</state><street>8421 SUNBLAZE WAY</street><type>Residential</type><zip>95823</zip></record><record><baths>1</baths><beds>4</beds><city>SACRAMENTO</city><latitude>38.489405</latitude><longitude>-121.452811</longitude><price>166357</price><sale_date>Wed May 21 00:00:00 EDT 2008</sale_date><sq__ft>1955</sq__ft><state>CA</state><street>7420 ALIX PKWY</street><type>Residential</type><zip>95823</zip></record><record><baths>2</baths><beds>4</beds><city>SACRAMENTO</city><latitude>38.636748</latitude><longitude>-121.422159</longitude><price>166357</price><sale_date>Wed May 21 00:00:00 EDT 2008</sale_date><sq__ft>1656</sq__ft><state>CA</state><street>3820 NATOMA WAY</street><type>Residential</type><zip>95838</zip></record><record><baths>2</baths><beds>3</beds><city>SACRAMENTO</city><latitude>38.499954</latitude><longitude>-121.454469</longitude><price>168000</price><sale_date>Wed May 21 00:00:00 EDT 2008</sale_date><sq__ft>1477</sq__ft><state>CA</state><street>4431 GREEN TREE DR</street><type>Residential</type><zip>95823</zip></record><record><baths>2</baths><beds>3</beds><city>ELK GROVE</city><latitude>38.415518</latitude><longitude>-121.370527</longitude><price>170000</price><sale_date>Wed May 21 00:00:00 EDT 2008</sale_date><sq__ft>1188</sq__ft><state>CA</state><street>9417 SARA ST</street><type>Residential</type><zip>95624</zip></record><record><baths>2</baths><beds>4</beds><city>SACRAMENTO</city><latitude>38.473814</latitude><longitude>-121.4</longitude><price>173000</price><sale_date>Wed May 21 00:00:00 EDT 2008</sale_date><sq__ft>1590</sq__ft><state>CA</state><street>8299 HALBRITE WAY</street><type>Residential</type><zip>95828</zip></record><record><baths>2</baths><beds>3</beds><city>SACRAMENTO</city><latitude>38.477553</latitude><longitude>-121.419463</longitude><price>174250</price><sale_date>Wed May 21 00:00:00 EDT 2008</sale_date><sq__ft>1463</sq__ft><state>CA</state><street>7223 KALLIE KAY LN</street><type>Residential</type><zip>95823</zip></record><record><baths>2</baths><beds>4</beds><city>SACRAMENTO</city><latitude>38.474853</latitude><longitude>-121.406326</longitude><price>174313</price><sale_date>Wed May 21 00:00:00 EDT 2008</sale_date><sq__ft>1714</sq__ft><state>CA</state><street>8156 STEINBECK WAY</street><type>Residential</type><zip>95828</zip></record><record><baths>2</baths><beds>3</beds><city>SACRAMENTO</city><latitude>38.465184</latitude><longitude>-121.434925</longitude><price>178480</price><sale_date>Wed May 21 00:00:00 EDT 2008</sale_date><sq__ft>1185</sq__ft><state>CA</state><street>7957 VALLEY GREEN DR</street><type>Residential</type><zip>95823</zip></record><record><baths>2</baths><beds>3</beds><city>GALT</city><latitude>38.287789</latitude><longitude>-121.294715</longitude><price>178760</price><sale_date>Wed May 21 00:00:00 EDT 2008</sale_date><sq__ft>1406</sq__ft><state>CA</state><street>1122 WILD POPPY CT</street><type>Residential</type><zip>95632</zip></record><record><baths>2</baths><beds>4</beds><city>SACRAMENTO</city><latitude>38.665724</latitude><longitude>-121.358576</longitude><price>179580</price><sale_date>Wed May 21 00:00:00 EDT 2008</sale_date><sq__ft>1943</sq__ft><state>CA</state><street>4520 BOMARK WAY</street><type>Multi-Family</type><zip>95842</zip></record><record><baths>2</baths><beds>3</beds><city>SACRAMENTO</city><latitude>38.547011</latitude><longitude>-121.366217</longitude><price>181000</price><sale_date>Wed May 21 00:00:00 EDT 2008</sale_date><sq__ft>1172</sq__ft><state>CA</state><street>9012 KIEFER BLVD</street><type>Residential</type><zip>95826</zip></record><record><baths>1</baths><beds>3</beds><city>CARMICHAEL</city><latitude>38.662105</latitude><longitude>-121.313945</longitude><price>181872</price><sale_date>Wed May 21 00:00:00 EDT 2008</sale_date><sq__ft>1152</sq__ft><state>CA</state><street>5332 SANDSTONE ST</street><type>Residential</type><zip>95608</zip></record><record><baths>3</baths><beds>4</beds><city>SACRAMENTO</city><latitude>38.4473</latitude><longitude>-121.435218</longitude><price>182587</price><sale_date>Wed May 21 00:00:00 EDT 2008</sale_date><sq__ft>1851</sq__ft><state>CA</state><street>5993 SAWYER CIR</street><type>Residential</type><zip>95823</zip></record><record><baths>2</baths><beds>3</beds><city>ANTELOPE</city><latitude>38.714609</latitude><longitude>-121.347887</longitude><price>182716</price><sale_date>Wed May 21 00:00:00 EDT 2008</sale_date><sq__ft>1215</sq__ft><state>CA</state><street>4844 CLYDEBANK WAY</street><type>Residential</type><zip>95843</zip></record><record><baths>2</baths><beds>3</beds><city>GALT</city><latitude>38.260443</latitude><longitude>-121.297864</longitude><price>182750</price><sale_date>Wed May 21 00:00:00 EDT 2008</sale_date><sq__ft>1130</sq__ft><state>CA</state><street>306 CAMELLIA WAY</street><type>Residential</type><zip>95632</zip></record><record><baths>2</baths><beds>4</beds><city>ORANGEVALE</city><latitude>38.664186</latitude><longitude>-121.217511</longitude><price>183200</price><sale_date>Wed May 21 00:00:00 EDT 2008</sale_date><sq__ft>1603</sq__ft><state>CA</state><street>9021 MADISON AVE</street><type>Residential</type><zip>95662</zip></record><record><baths>1</baths><beds>3</beds><city>GALT</city><latitude>38.251808</latitude><longitude>-121.302493</longitude><price>188741</price><sale_date>Wed May 21 00:00:00 EDT 2008</sale_date><sq__ft>1479</sq__ft><state>CA</state><street>404 6TH ST</street><type>Residential</type><zip>95632</zip></record><record><baths>2</baths><beds>3</beds><city>SACRAMENTO</city><latitude>38.459041</latitude><longitude>-121.424644</longitude><price>189000</price><sale_date>Wed May 21 00:00:00 EDT 2008</sale_date><sq__ft>1420</sq__ft><state>CA</state><street>8317 SUNNY CREEK WAY</street><type>Residential</type><zip>95823</zip></record><record><baths>2</baths><beds>3</beds><city>SACRAMENTO</city><latitude>38.560767</latitude><longitude>-121.377471</longitude><price>192067</price><sale_date>Wed May 21 00:00:00 EDT 2008</sale_date><sq__ft>1280</sq__ft><state>CA</state><street>2617 BASS CT</street><type>Residential</type><zip>95826</zip></record><record><baths>2</baths><beds>3</beds><city>ELK GROVE</city><latitude>38.422811</latitude><longitude>-121.423285</longitude><price>194000</price><sale_date>Wed May 21 00:00:00 EDT 2008</sale_date><sq__ft>1586</sq__ft><state>CA</state><street>7005 TIANT WAY</street><type>Residential</type><zip>95758</zip></record><record><baths>2</baths><beds>3</beds><city>ANTELOPE</city><latitude>38.711279</latitude><longitude>-121.393449</longitude><price>194818</price><sale_date>Wed May 21 00:00:00 EDT 2008</sale_date><sq__ft>1362</sq__ft><state>CA</state><street>7895 CABER WAY</street><type>Residential</type><zip>95843</zip></record><record><baths>4</baths><beds>4</beds><city>SACRAMENTO</city><latitude>38.48009</latitude><longitude>-121.415102</longitude><price>195000</price><sale_date>Wed May 21 00:00:00 EDT 2008</sale_date><sq__ft>2162</sq__ft><state>CA</state><street>7624 BOGEY CT</street><type>Multi-Family</type><zip>95828</zip></record><record><baths>2</baths><beds>3</beds><city>SACRAMENTO</city><latitude>38.44004</latitude><longitude>-121.421012</longitude><price>198000</price><sale_date>Wed May 21 00:00:00 EDT 2008</sale_date><sq__ft>1266</sq__ft><state>CA</state><street>6930 HAMPTON COVE WAY</street><type>Residential</type><zip>95823</zip></record><record><baths>2</baths><beds>4</beds><city>ELK GROVE</city><latitude>38.44076</latitude><longitude>-121.385792</longitude><price>199500</price><sale_date>Wed May 21 00:00:00 EDT 2008</sale_date><sq__ft>1715</sq__ft><state>CA</state><street>8708 MESA BROOK WAY</street><type>Residential</type><zip>95624</zip></record><record><baths>2</baths><beds>3</beds><city>FOLSOM</city><latitude>38.687742</latitude><longitude>-121.17104</longitude><price>200000</price><sale_date>Wed May 21 00:00:00 EDT 2008</sale_date><sq__ft>1820</sq__ft><state>CA</state><street>120 GRANT LN</street><type>Residential</type><zip>95630</zip></record><record><baths>1</baths><beds>3</beds><city>CARMICHAEL</city><latitude>38.664468</latitude><longitude>-121.32683</longitude><price>200000</price><sale_date>Wed May 21 00:00:00 EDT 2008</sale_date><sq__ft>936</sq__ft><state>CA</state><street>5907 ELLERSLEE DR</street><type>Residential</type><zip>95608</zip></record><record><baths>0</baths><beds>0</beds><city>SACRAMENTO</city><latitude>38.631481</latitude><longitude>-121.50188</longitude><price>206000</price><sale_date>Wed May 21 00:00:00 EDT 2008</sale_date><sq__ft>0</sq__ft><state>CA</state><street>17 SERASPI CT</street><type>Residential</type><zip>95834</zip></record><record><baths>2</baths><beds>3</beds><city>SACRAMENTO</city><latitude>38.653439</latitude><longitude>-121.535169</longitude><price>208000</price><sale_date>Wed May 21 00:00:00 EDT 2008</sale_date><sq__ft>1511</sq__ft><state>CA</state><street>170 PENHOW CIR</street><type>Residential</type><zip>95834</zip></record><record><baths>2</baths><beds>4</beds><city>SACRAMENTO</city><latitude>38.454349</latitude><longitude>-121.439239</longitude><price>212864</price><sale_date>Wed May 21 00:00:00 EDT 2008</sale_date><sq__ft>1590</sq__ft><state>CA</state><street>8345 STAR THISTLE WAY</street><type>Residential</type><zip>95823</zip></record><record><baths>2</baths><beds>4</beds><city>ELK GROVE</city><latitude>38.427818</latitude><longitude>-121.424026</longitude><price>221000</price><sale_date>Wed May 21 00:00:00 EDT 2008</sale_date><sq__ft>1596</sq__ft><state>CA</state><street>9080 FRESCA WAY</street><type>Residential</type><zip>95758</zip></record><record><baths>2</baths><beds>2</beds><city>SACRAMENTO</city><latitude>38.67307</latitude><longitude>-121.506373</longitude><price>221000</price><sale_date>Wed May 21 00:00:00 EDT 2008</sale_date><sq__ft>1341</sq__ft><state>CA</state><street>391 NATALINO CIR</street><type>Residential</type><zip>95835</zip></record><record><baths>3</baths><beds>5</beds><city>ELK GROVE</city><latitude>38.435436</latitude><longitude>-121.394536</longitude><price>223058</price><sale_date>Wed May 21 00:00:00 EDT 2008</sale_date><sq__ft>2136</sq__ft><state>CA</state><street>8373 BLACKMAN WAY</street><type>Residential</type><zip>95624</zip></record><record><baths>2</baths><beds>4</beds><city>ELK GROVE</city><latitude>38.400676</latitude><longitude>-121.38101</longitude><price>227887</price><sale_date>Wed May 21 00:00:00 EDT 2008</sale_date><sq__ft>1616</sq__ft><state>CA</state><street>9837 CORTE DORADO CT</street><type>Residential</type><zip>95624</zip></record><record><baths>2</baths><beds>3</beds><city>SACRAMENTO</city><latitude>38.491399</latitude><longitude>-121.443547</longitude><price>231477</price><sale_date>Wed May 21 00:00:00 EDT 2008</sale_date><sq__ft>1478</sq__ft><state>CA</state><street>5037 J PKWY</street><type>Residential</type><zip>95823</zip></record><record><baths>2</baths><beds>3</beds><city>RANCHO CORDOVA</city><latitude>38.593699</latitude><longitude>-121.31089</longitude><price>234697</price><sale_date>Wed May 21 00:00:00 EDT 2008</sale_date><sq__ft>1287</sq__ft><state>CA</state><street>10245 LOS PALOS DR</street><type>Residential</type><zip>95670</zip></record><record><baths>2</baths><beds>4</beds><city>CITRUS HEIGHTS</city><latitude>38.702855</latitude><longitude>-121.31308</longitude><price>235000</price><sale_date>Wed May 21 00:00:00 EDT 2008</sale_date><sq__ft>1277</sq__ft><state>CA</state><street>6613 NAVION DR</street><type>Residential</type><zip>95621</zip></record><record><baths>2</baths><beds>4</beds><city>SACRAMENTO</city><latitude>38.618457</latitude><longitude>-121.509439</longitude><price>236000</price><sale_date>Wed May 21 00:00:00 EDT 2008</sale_date><sq__ft>1448</sq__ft><state>CA</state><street>2887 AZEVEDO DR</street><type>Residential</type><zip>95833</zip></record><record><baths>3</baths><beds>4</beds><city>SACRAMENTO</city><latitude>38.463355</latitude><longitude>-121.358936</longitude><price>236685</price><sale_date>Wed May 21 00:00:00 EDT 2008</sale_date><sq__ft>2235</sq__ft><state>CA</state><street>9186 KINBRACE CT</street><type>Residential</type><zip>95829</zip></record><record><baths>2</baths><beds>3</beds><city>MATHER</city><latitude>38.547991</latitude><longitude>-121.280483</longitude><price>237800</price><sale_date>Wed May 21 00:00:00 EDT 2008</sale_date><sq__ft>2093</sq__ft><state>CA</state><street>4243 MIDDLEBURY WAY</street><type>Residential</type><zip>95655</zip></record><record><baths>2</baths><beds>3</beds><city>RIO LINDA</city><latitude>38.693818</latitude><longitude>-121.441153</longitude><price>240122</price><sale_date>Wed May 21 00:00:00 EDT 2008</sale_date><sq__ft>1193</sq__ft><state>CA</state><street>1028 FALLON PLACE CT</street><type>Residential</type><zip>95673</zip></record><record><baths>2</baths><beds>3</beds><city>ELK GROVE</city><latitude>38.400974</latitude><longitude>-121.448424</longitude><price>242638</price><sale_date>Wed May 21 00:00:00 EDT 2008</sale_date><sq__ft>2163</sq__ft><state>CA</state><street>4804 NORIKER DR</street><type>Residential</type><zip>95757</zip></record><record><baths>2</baths><beds>3</beds><city>SACRAMENTO</city><latitude>38.478198</latitude><longitude>-121.412911</longitude><price>244000</price><sale_date>Wed May 21 00:00:00 EDT 2008</sale_date><sq__ft>1269</sq__ft><state>CA</state><street>7713 HARVEST WOODS DR</street><type>Residential</type><zip>95828</zip></record><record><baths>0</baths><beds>0</beds><city>SACRAMENTO</city><latitude>38.626671</latitude><longitude>-121.52597</longitude><price>244500</price><sale_date>Wed May 21 00:00:00 EDT 2008</sale_date><sq__ft>0</sq__ft><state>CA</state><street>2866 KARITSA AVE</street><type>Residential</type><zip>95833</zip></record><record><baths>1</baths><beds>3</beds><city>SACRAMENTO</city><latitude>38.502519</latitude><longitude>-121.420769</longitude><price>244960</price><sale_date>Wed May 21 00:00:00 EDT 2008</sale_date><sq__ft>958</sq__ft><state>CA</state><street>6913 RICHEVE WAY</street><type>Residential</type><zip>95828</zip></record><record><baths>3</baths><beds>5</beds><city>ELK GROVE</city><latitude>38.443832</latitude><longitude>-121.382087</longitude><price>245918</price><sale_date>Wed May 21 00:00:00 EDT 2008</sale_date><sq__ft>2508</sq__ft><state>CA</state><street>8636 TEGEA WAY</street><type>Residential</type><zip>95624</zip></record><record><baths>2</baths><beds>3</beds><city>CITRUS HEIGHTS</city><latitude>38.665395</latitude><longitude>-121.293288</longitude><price>250000</price><sale_date>Wed May 21 00:00:00 EDT 2008</sale_date><sq__ft>1305</sq__ft><state>CA</state><street>5448 MAIDSTONE WAY</street><type>Residential</type><zip>95621</zip></record><record><baths>2</baths><beds>4</beds><city>ELK GROVE</city><latitude>38.444909</latitude><longitude>-121.412345</longitude><price>250000</price><sale_date>Wed May 21 00:00:00 EDT 2008</sale_date><sq__ft>1591</sq__ft><state>CA</state><street>18 OLLIE CT</street><type>Residential</type><zip>95758</zip></record><record><baths>2</baths><beds>2</beds><city>CARMICHAEL</city><latitude>38.637028</latitude><longitude>-121.312963</longitude><price>250134</price><sale_date>Wed May 21 00:00:00 EDT 2008</sale_date><sq__ft>1326</sq__ft><state>CA</state><street>4010 ALEX LN</street><type>Condo</type><zip>95608</zip></record><record><baths>2</baths><beds>3</beds><city>ELK GROVE</city><latitude>38.38692</latitude><longitude>-121.447349</longitude><price>254200</price><sale_date>Wed May 21 00:00:00 EDT 2008</sale_date><sq__ft>1843</sq__ft><state>CA</state><street>4901 MILLNER WAY</street><type>Residential</type><zip>95757</zip></record><record><baths>2</baths><beds>4</beds><city>SACRAMENTO</city><latitude>38.653917</latitude><longitude>-121.34218</longitude><price>254200</price><sale_date>Wed May 21 00:00:00 EDT 2008</sale_date><sq__ft>1921</sq__ft><state>CA</state><street>4818 BRITTNEY LEE CT</street><type>Residential</type><zip>95841</zip></record><record><baths>3</baths><beds>5</beds><city>ELK GROVE</city><latitude>38.42568</latitude><longitude>-121.438062</longitude><price>258000</price><sale_date>Wed May 21 00:00:00 EDT 2008</sale_date><sq__ft>2790</sq__ft><state>CA</state><street>5529 LAGUNA PARK DR</street><type>Residential</type><zip>95758</zip></record><record><baths>2</baths><beds>3</beds><city>SACRAMENTO</city><latitude>38.656251</latitude><longitude>-121.547572</longitude><price>260000</price><sale_date>Wed May 21 00:00:00 EDT 2008</sale_date><sq__ft>1541</sq__ft><state>CA</state><street>230 CANDELA CIR</street><type>Residential</type><zip>95835</zip></record><record><baths>1</baths><beds>3</beds><city>SACRAMENTO</city><latitude>38.53151</latitude><longitude>-121.421089</longitude><price>260014</price><sale_date>Wed May 21 00:00:00 EDT 2008</sale_date><sq__ft>1018</sq__ft><state>CA</state><street>4900 71ST ST</street><type>Residential</type><zip>95820</zip></record><record><baths>0</baths><beds>0</beds><city>RANCHO CORDOVA</city><latitude>38.553867</latitude><longitude>-121.219141</longitude><price>263500</price><sale_date>Wed May 21 00:00:00 EDT 2008</sale_date><sq__ft>0</sq__ft><state>CA</state><street>12209 CONSERVANCY WAY</street><type>Residential</type><zip>95742</zip></record><record><baths>2</baths><beds>3</beds><city>SACRAMENTO</city><latitude>38.648879</latitude><longitude>-121.544023</longitude><price>265000</price><sale_date>Wed May 21 00:00:00 EDT 2008</sale_date><sq__ft>1672</sq__ft><state>CA</state><street>4236 NATOMAS CENTRAL DR</street><type>Condo</type><zip>95834</zip></record><record><baths>2</baths><beds>3</beds><city>POLLOCK PINES</city><latitude>38.708315</latitude><longitude>-120.603872</longitude><price>265000</price><sale_date>Wed May 21 00:00:00 EDT 2008</sale_date><sq__ft>1380</sq__ft><state>CA</state><street>5615 LUPIN LN</street><type>Residential</type><zip>95726</zip></record><record><baths>1</baths><beds>3</beds><city>SACRAMENTO</city><latitude>38.523947</latitude><longitude>-121.484946</longitude><price>271742</price><sale_date>Wed May 21 00:00:00 EDT 2008</sale_date><sq__ft>975</sq__ft><state>CA</state><street>5625 JAMES WAY</street><type>Residential</type><zip>95822</zip></record><record><baths>3</baths><beds>4</beds><city>SACRAMENTO</city><latitude>38.472976</latitude><longitude>-121.318633</longitude><price>273750</price><sale_date>Wed May 21 00:00:00 EDT 2008</sale_date><sq__ft>2372</sq__ft><state>CA</state><street>7842 LAHONTAN CT</street><type>Residential</type><zip>95829</zip></record><record><baths>2</baths><beds>3</beds><city>SACRAMENTO</city><latitude>38.502194</latitude><longitude>-121.490795</longitude><price>275086</price><sale_date>Wed May 21 00:00:00 EDT 2008</sale_date><sq__ft>1446</sq__ft><state>CA</state><street>6850 21ST ST</street><type>Residential</type><zip>95822</zip></record><record><baths>2</baths><beds>2</beds><city>POLLOCK PINES</city><latitude>38.75485</latitude><longitude>-120.60476</longitude><price>280908</price><sale_date>Wed May 21 00:00:00 EDT 2008</sale_date><sq__ft>1284</sq__ft><state>CA</state><street>2900 BLAIR RD</street><type>Residential</type><zip>95726</zip></record><record><baths>3</baths><beds>4</beds><city>SACRAMENTO</city><latitude>38.474099</latitude><longitude>-121.490711</longitude><price>280987</price><sale_date>Wed May 21 00:00:00 EDT 2008</sale_date><sq__ft>3009</sq__ft><state>CA</state><street>2064 EXPEDITION WAY</street><type>Residential</type><zip>95832</zip></record><record><baths>4</baths><beds>8</beds><city>SACRAMENTO</city><latitude>38.559505</latitude><longitude>-121.364839</longitude><price>282400</price><sale_date>Wed May 21 00:00:00 EDT 2008</sale_date><sq__ft>3612</sq__ft><state>CA</state><street>2912 NORCADE CIR</street><type>Multi-Family</type><zip>95826</zip></record><record><baths>2</baths><beds>4</beds><city>ELK GROVE</city><latitude>38.410992</latitude><longitude>-121.479043</longitude><price>285000</price><sale_date>Wed May 21 00:00:00 EDT 2008</sale_date><sq__ft>2056</sq__ft><state>CA</state><street>9507 SEA CLIFF WAY</street><type>Residential</type><zip>95758</zip></record><record><baths>2</baths><beds>4</beds><city>ELK GROVE</city><latitude>38.4439</latitude><longitude>-121.37255</longitude><price>287417</price><sale_date>Wed May 21 00:00:00 EDT 2008</sale_date><sq__ft>1993</sq__ft><state>CA</state><street>8882 AUTUMN GOLD CT</street><type>Residential</type><zip>95624</zip></record><record><baths>2</baths><beds>3</beds><city>ELK GROVE</city><latitude>38.391538</latitude><longitude>-121.442596</longitude><price>291000</price><sale_date>Wed May 21 00:00:00 EDT 2008</sale_date><sq__ft>1857</sq__ft><state>CA</state><street>5322 WHITE LOTUS WAY</street><type>Residential</type><zip>95757</zip></record><record><baths>1</baths><beds>2</beds><city>SACRAMENTO</city><latitude>38.556098</latitude><longitude>-121.490787</longitude><price>292024</price><sale_date>Wed May 21 00:00:00 EDT 2008</sale_date><sq__ft>1126</sq__ft><state>CA</state><street>1838 CASTRO WAY</street><type>Residential</type><zip>95818</zip></record><record><baths>4</baths><beds>4</beds><city>SACRAMENTO</city><latitude>38.5703</latitude><longitude>-121.315735</longitude><price>297000</price><sale_date>Wed May 21 00:00:00 EDT 2008</sale_date><sq__ft>2213</sq__ft><state>CA</state><street>10158 CRAWFORD WAY</street><type>Multi-Family</type><zip>95827</zip></record><record><baths>3</baths><beds>5</beds><city>ELK GROVE</city><latitude>38.442031</latitude><longitude>-121.410873</longitude><price>297000</price><sale_date>Wed May 21 00:00:00 EDT 2008</sale_date><sq__ft>2494</sq__ft><state>CA</state><street>7731 MASTERS ST</street><type>Residential</type><zip>95758</zip></record><record><baths>2</baths><beds>3</beds><city>ELK GROVE</city><latitude>38.40154</latitude><longitude>-121.447649</longitude><price>298000</price><sale_date>Wed May 21 00:00:00 EDT 2008</sale_date><sq__ft>1843</sq__ft><state>CA</state><street>4925 PERCHERON DR</street><type>Residential</type><zip>95757</zip></record><record><baths>2</baths><beds>2</beds><city>GOLD RIVER</city><latitude>38.62869</latitude><longitude>-121.261669</longitude><price>299000</price><sale_date>Wed May 21 00:00:00 EDT 2008</sale_date><sq__ft>1520</sq__ft><state>CA</state><street>2010 PROMONTORY POINT LN</street><type>Residential</type><zip>95670</zip></record><record><baths>3</baths><beds>5</beds><city>SACRAMENTO</city><latitude>38.658182</latitude><longitude>-121.549521</longitude><price>304037</price><sale_date>Wed May 21 00:00:00 EDT 2008</sale_date><sq__ft>2800</sq__ft><state>CA</state><street>4727 SAVOIE WAY</street><type>Residential</type><zip>95835</zip></record><record><baths>2</baths><beds>4</beds><city>ELK GROVE</city><latitude>38.442352</latitude><longitude>-121.389675</longitude><price>311000</price><sale_date>Wed May 21 00:00:00 EDT 2008</sale_date><sq__ft>2309</sq__ft><state>CA</state><street>8664 MAGNOLIA HILL WAY</street><type>Residential</type><zip>95624</zip></record><record><baths>3</baths><beds>5</beds><city>SACRAMENTO</city><latitude>38.555993</latitude><longitude>-121.340352</longitude><price>315537</price><sale_date>Wed May 21 00:00:00 EDT 2008</sale_date><sq__ft>2367</sq__ft><state>CA</state><street>9570 HARVEST ROSE WAY</street><type>Residential</type><zip>95827</zip></record><record><baths>4</baths><beds>5</beds><city>RANCHO CORDOVA</city><latitude>38.545128</latitude><longitude>-121.224922</longitude><price>320000</price><sale_date>Wed May 21 00:00:00 EDT 2008</sale_date><sq__ft>3516</sq__ft><state>CA</state><street>4359 CREGAN CT</street><type>Residential</type><zip>95742</zip></record><record><baths>0</baths><beds>0</beds><city>RANCHO CORDOVA</city><latitude>38.528575</latitude><longitude>-121.2286</longitude><price>320000</price><sale_date>Wed May 21 00:00:00 EDT 2008</sale_date><sq__ft>0</sq__ft><state>CA</state><street>5337 DUSTY ROSE WAY</street><type>Residential</type><zip>95742</zip></record><record><baths>3</baths><beds>4</beds><city>SACRAMENTO</city><latitude>38.550848</latitude><longitude>-121.370224</longitude><price>328360</price><sale_date>Wed May 21 00:00:00 EDT 2008</sale_date><sq__ft>1914</sq__ft><state>CA</state><street>8929 SUTTERS GOLD DR</street><type>Residential</type><zip>95826</zip></record><record><baths>1</baths><beds>2</beds><city>ORANGEVALE</city><latitude>38.71147</latitude><longitude>-121.216214</longitude><price>334150</price><sale_date>Wed May 21 00:00:00 EDT 2008</sale_date><sq__ft>1690</sq__ft><state>CA</state><street>8025 PEERLESS AVE</street><type>Residential</type><zip>95662</zip></record><record><baths>3</baths><beds>3</beds><city>ELK GROVE</city><latitude>38.398609</latitude><longitude>-121.450148</longitude><price>335750</price><sale_date>Wed May 21 00:00:00 EDT 2008</sale_date><sq__ft>2725</sq__ft><state>CA</state><street>4620 WELERA WAY</street><type>Residential</type><zip>95757</zip></record><record><baths>3</baths><beds>4</beds><city>ELK GROVE</city><latitude>38.403492</latitude><longitude>-121.430224</longitude><price>335750</price><sale_date>Wed May 21 00:00:00 EDT 2008</sale_date><sq__ft>2354</sq__ft><state>CA</state><street>9723 TERRAPIN CT</street><type>Residential</type><zip>95757</zip></record><record><baths>0</baths><beds>0</beds><city>SACRAMENTO</city><latitude>38.602416</latitude><longitude>-121.542965</longitude><price>339500</price><sale_date>Wed May 21 00:00:00 EDT 2008</sale_date><sq__ft>0</sq__ft><state>CA</state><street>2115 SMOKESTACK WAY</street><type>Residential</type><zip>95833</zip></record><record><baths>2</baths><beds>3</beds><city>FOLSOM</city><latitude>38.68479</latitude><longitude>-121.149199</longitude><price>344250</price><sale_date>Wed May 21 00:00:00 EDT 2008</sale_date><sq__ft>2185</sq__ft><state>CA</state><street>100 REBECCA WAY</street><type>Residential</type><zip>95630</zip></record><record><baths>2</baths><beds>4</beds><city>ELK GROVE</city><latitude>38.41333</latitude><longitude>-121.404999</longitude><price>346210</price><sale_date>Wed May 21 00:00:00 EDT 2008</sale_date><sq__ft>1801</sq__ft><state>CA</state><street>9488 OAK VILLAGE WAY</street><type>Residential</type><zip>95758</zip></record><record><baths>3</baths><beds>3</beds><city>SACRAMENTO</city><latitude>38.448507</latitude><longitude>-121.421346</longitude><price>347029</price><sale_date>Wed May 21 00:00:00 EDT 2008</sale_date><sq__ft>1961</sq__ft><state>CA</state><street>8495 DARTFORD DR</street><type>Residential</type><zip>95823</zip></record><record><baths>2</baths><beds>4</beds><city>ELK GROVE</city><latitude>38.380635</latitude><longitude>-121.425538</longitude><price>347650</price><sale_date>Wed May 21 00:00:00 EDT 2008</sale_date><sq__ft>3134</sq__ft><state>CA</state><street>6708 PONTA DO SOL WAY</street><type>Residential</type><zip>95757</zip></record><record><baths>3</baths><beds>4</beds><city>SACRAMENTO</city><latitude>38.46534</latitude><longitude>-121.457519</longitude><price>351300</price><sale_date>Wed May 21 00:00:00 EDT 2008</sale_date><sq__ft>1915</sq__ft><state>CA</state><street>4143 SEA MEADOW WAY</street><type>Residential</type><zip>95823</zip></record><record><baths>2</baths><beds>3</beds><city>EL DORADO HILLS</city><latitude>38.691299</latitude><longitude>-121.081752</longitude><price>352000</price><sale_date>Wed May 21 00:00:00 EDT 2008</sale_date><sq__ft>0</sq__ft><state>CA</state><street>3020 RICHARDSON CIR</street><type>Residential</type><zip>95762</zip></record><record><baths>0</baths><beds>0</beds><city>SACRAMENTO</city><latitude>38.4772</latitude><longitude>-121.5215</longitude><price>370000</price><sale_date>Wed May 21 00:00:00 EDT 2008</sale_date><sq__ft>0</sq__ft><state>CA</state><street>8082 LINDA ISLE LN</street><type>Residential</type><zip>95831</zip></record><record><baths>3</baths><beds>4</beds><city>RANCHO MURIETA</city><latitude>38.4874</latitude><longitude>-121.075129</longitude><price>370500</price><sale_date>Wed May 21 00:00:00 EDT 2008</sale_date><sq__ft>2734</sq__ft><state>CA</state><street>15300 MURIETA SOUTH PKWY</street><type>Residential</type><zip>95683</zip></record><record><baths>2</baths><beds>3</beds><city>WILTON</city><latitude>38.35062</latitude><longitude>-121.228349</longitude><price>372000</price><sale_date>Wed May 21 00:00:00 EDT 2008</sale_date><sq__ft>2110</sq__ft><state>CA</state><street>11215 SHARRMONT CT</street><type>Residential</type><zip>95693</zip></record><record><baths>3</baths><beds>5</beds><city>ELK GROVE</city><latitude>38.4019</latitude><longitude>-121.420388</longitude><price>375000</price><sale_date>Wed May 21 00:00:00 EDT 2008</sale_date><sq__ft>3164</sq__ft><state>CA</state><street>7105 DANBERG WAY</street><type>Residential</type><zip>95757</zip></record><record><baths>3</baths><beds>5</beds><city>SACRAMENTO</city><latitude>38.677126</latitude><longitude>-121.500519</longitude><price>381300</price><sale_date>Wed May 21 00:00:00 EDT 2008</sale_date><sq__ft>3599</sq__ft><state>CA</state><street>5579 JERRY LITELL WAY</street><type>Residential</type><zip>95835</zip></record><record><baths>2</baths><beds>4</beds><city>SACRAMENTO</city><latitude>38.509819</latitude><longitude>-121.519661</longitude><price>381942</price><sale_date>Wed May 21 00:00:00 EDT 2008</sale_date><sq__ft>2054</sq__ft><state>CA</state><street>1050 FOXHALL WAY</street><type>Residential</type><zip>95831</zip></record><record><baths>2</baths><beds>4</beds><city>ANTELOPE</city><latitude>38.709873</latitude><longitude>-121.339472</longitude><price>387731</price><sale_date>Wed May 21 00:00:00 EDT 2008</sale_date><sq__ft>1830</sq__ft><state>CA</state><street>7837 ABBINGTON WAY</street><type>Residential</type><zip>95843</zip></record><record><baths>3</baths><beds>3</beds><city>SACRAMENTO</city><latitude>38.58355</latitude><longitude>-121.487289</longitude><price>391000</price><sale_date>Wed May 21 00:00:00 EDT 2008</sale_date><sq__ft>1627</sq__ft><state>CA</state><street>1300 F ST</street><type>Residential</type><zip>95814</zip></record><record><baths>3</baths><beds>4</beds><city>ELK GROVE</city><latitude>38.408351</latitude><longitude>-121.423925</longitude><price>394470</price><sale_date>Wed May 21 00:00:00 EDT 2008</sale_date><sq__ft>3440</sq__ft><state>CA</state><street>6801 RAWLEY WAY</street><type>Residential</type><zip>95757</zip></record><record><baths>2</baths><beds>3</beds><city>GREENWOOD</city><latitude>38.945357</latitude><longitude>-120.908822</longitude><price>395000</price><sale_date>Wed May 21 00:00:00 EDT 2008</sale_date><sq__ft>2846</sq__ft><state>CA</state><street>1693 SHELTER COVE DR</street><type>Residential</type><zip>95635</zip></record><record><baths>3</baths><beds>4</beds><city>ELK GROVE</city><latitude>38.450829</latitude><longitude>-121.349928</longitude><price>400186</price><sale_date>Wed May 21 00:00:00 EDT 2008</sale_date><sq__ft>2359</sq__ft><state>CA</state><street>9361 WADDELL LN</street><type>Residential</type><zip>95624</zip></record><record><baths>3</baths><beds>3</beds><city>SACRAMENTO</city><latitude>38.487885</latitude><longitude>-121.545947</longitude><price>415000</price><sale_date>Wed May 21 00:00:00 EDT 2008</sale_date><sq__ft>2052</sq__ft><state>CA</state><street>10 SEA FOAM CT</street><type>Residential</type><zip>95831</zip></record><record><baths>3</baths><beds>5</beds><city>ELK GROVE</city><latitude>38.385638</latitude><longitude>-121.422616</longitude><price>425000</price><sale_date>Wed May 21 00:00:00 EDT 2008</sale_date><sq__ft>3433</sq__ft><state>CA</state><street>6945 RIO TEJO WAY</street><type>Residential</type><zip>95757</zip></record><record><baths>3</baths><beds>5</beds><city>RANCHO CORDOVA</city><latitude>38.550617</latitude><longitude>-121.23526</longitude><price>430000</price><sale_date>Wed May 21 00:00:00 EDT 2008</sale_date><sq__ft>3615</sq__ft><state>CA</state><street>4186 TULIP PARK WAY</street><type>Residential</type><zip>95742</zip></record><record><baths>0</baths><beds>0</beds><city>ELK GROVE</city><latitude>38.420338</latitude><longitude>-121.363757</longitude><price>445000</price><sale_date>Wed May 21 00:00:00 EDT 2008</sale_date><sq__ft>0</sq__ft><state>CA</state><street>9278 DAIRY CT</street><type>Residential</type><zip>95624</zip></record><record><baths>3</baths><beds>5</beds><city>FOLSOM</city><latitude>38.646273</latitude><longitude>-121.175322</longitude><price>460000</price><sale_date>Wed May 21 00:00:00 EDT 2008</sale_date><sq__ft>2687</sq__ft><state>CA</state><street>207 ORANGE BLOSSOM CIR Unit C</street><type>Residential</type><zip>95630</zip></record><record><baths>3</baths><beds>4</beds><city>ELK GROVE</city><latitude>38.38253</latitude><longitude>-121.428007</longitude><price>461000</price><sale_date>Wed May 21 00:00:00 EDT 2008</sale_date><sq__ft>2724</sq__ft><state>CA</state><street>6507 RIO DE ONAR WAY</street><type>Residential</type><zip>95757</zip></record><record><baths>3</baths><beds>4</beds><city>ELK GROVE</city><latitude>38.406421</latitude><longitude>-121.422081</longitude><price>489332</price><sale_date>Wed May 21 00:00:00 EDT 2008</sale_date><sq__ft>3440</sq__ft><state>CA</state><street>7004 RAWLEY WAY</street><type>Residential</type><zip>95757</zip></record><record><baths>4</baths><beds>5</beds><city>ELK GROVE</city><latitude>38.38253</latitude><longitude>-121.428038</longitude><price>510000</price><sale_date>Wed May 21 00:00:00 EDT 2008</sale_date><sq__ft>3508</sq__ft><state>CA</state><street>6503 RIO DE ONAR WAY</street><type>Residential</type><zip>95757</zip></record><record><baths>2</baths><beds>4</beds><city>FOLSOM</city><latitude>38.655167</latitude><longitude>-121.090178</longitude><price>539000</price><sale_date>Wed May 21 00:00:00 EDT 2008</sale_date><sq__ft>2462</sq__ft><state>CA</state><street>2217 APPALOOSA CT</street><type>Residential</type><zip>95630</zip></record><record><baths>0</baths><beds>0</beds><city>FOLSOM</city><latitude>38.670947</latitude><longitude>-121.097727</longitude><price>585000</price><sale_date>Wed May 21 00:00:00 EDT 2008</sale_date><sq__ft>0</sq__ft><state>CA</state><street>868 HILDEBRAND CIR</street><type>Residential</type><zip>95630</zip></record><record><baths>3</baths><beds>4</beds><city>EL DORADO HILLS</city><latitude>38.672761</latitude><longitude>-121.050378</longitude><price>600000</price><sale_date>Wed May 21 00:00:00 EDT 2008</sale_date><sq__ft>0</sq__ft><state>CA</state><street>6030 PALERMO WAY</street><type>Residential</type><zip>95762</zip></record><record><baths>3</baths><beds>4</beds><city>EL DORADO HILLS</city><latitude>38.666807</latitude><longitude>-121.06483</longitude><price>606238</price><sale_date>Wed May 21 00:00:00 EDT 2008</sale_date><sq__ft>0</sq__ft><state>CA</state><street>4070 REDONDO DR</street><type>Residential</type><zip>95762</zip></record><record><baths>3</baths><beds>3</beds><city>SACRAMENTO</city><latitude>38.591618</latitude><longitude>-121.370626</longitude><price>660000</price><sale_date>Wed May 21 00:00:00 EDT 2008</sale_date><sq__ft>2325</sq__ft><state>CA</state><street>4004 CRESTA WAY</street><type>Residential</type><zip>95864</zip></record><record><baths>5</baths><beds>6</beds><city>EL DORADO HILLS</city><latitude>38.669931</latitude><longitude>-121.05958</longitude><price>830000</price><sale_date>Wed May 21 00:00:00 EDT 2008</sale_date><sq__ft>0</sq__ft><state>CA</state><street>315 JUMEL CT</street><type>Residential</type><zip>95762</zip></record><record><baths>1</baths><beds>2</beds><city>CITRUS HEIGHTS</city><latitude>38.680923</latitude><longitude>-121.313945</longitude><price>69000</price><sale_date>Tue May 20 00:00:00 EDT 2008</sale_date><sq__ft>795</sq__ft><state>CA</state><street>6272 LONGFORD DR Unit 1</street><type>Condo</type><zip>95621</zip></record><record><baths>2</baths><beds>4</beds><city>SACRAMENTO</city><latitude>38.554967</latitude><longitude>-121.468046</longitude><price>70000</price><sale_date>Tue May 20 00:00:00 EDT 2008</sale_date><sq__ft>1099</sq__ft><state>CA</state><street>3432 Y ST</street><type>Residential</type><zip>95817</zip></record><record><baths>1</baths><beds>2</beds><city>ELK GROVE</city><latitude>38.40573</latitude><longitude>-121.369832</longitude><price>71000</price><sale_date>Tue May 20 00:00:00 EDT 2008</sale_date><sq__ft>840</sq__ft><state>CA</state><street>9512 EMERALD PARK DR Unit 3</street><type>Condo</type><zip>95624</zip></record><record><baths>1</baths><beds>2</beds><city>SACRAMENTO</city><latitude>38.624678</latitude><longitude>-121.439203</longitude><price>78000</price><sale_date>Tue May 20 00:00:00 EDT 2008</sale_date><sq__ft>800</sq__ft><state>CA</state><street>3132 CLAY ST</street><type>Residential</type><zip>95815</zip></record><record><baths>1</baths><beds>2</beds><city>SACRAMENTO</city><latitude>38.518044</latitude><longitude>-121.443555</longitude><price>78400</price><sale_date>Tue May 20 00:00:00 EDT 2008</sale_date><sq__ft>746</sq__ft><state>CA</state><street>5221 38TH AVE</street><type>Residential</type><zip>95824</zip></record><record><baths>1</baths><beds>3</beds><city>SACRAMENTO</city><latitude>38.515125</latitude><longitude>-121.480416</longitude><price>80000</price><sale_date>Tue May 20 00:00:00 EDT 2008</sale_date><sq__ft>1067</sq__ft><state>CA</state><street>6112 HERMOSA ST</street><type>Residential</type><zip>95822</zip></record><record><baths>2</baths><beds>4</beds><city>SACRAMENTO</city><latitude>38.623571</latitude><longitude>-121.454884</longitude><price>89000</price><sale_date>Tue May 20 00:00:00 EDT 2008</sale_date><sq__ft>1316</sq__ft><state>CA</state><street>483 ARCADE BLVD</street><type>Residential</type><zip>95815</zip></record><record><baths>1</baths><beds>3</beds><city>SACRAMENTO</city><latitude>38.622953</latitude><longitude>-121.450142</longitude><price>90000</price><sale_date>Tue May 20 00:00:00 EDT 2008</sale_date><sq__ft>1337</sq__ft><state>CA</state><street>671 SONOMA AVE</street><type>Residential</type><zip>95815</zip></record><record><baths>1</baths><beds>2</beds><city>SACRAMENTO</city><latitude>38.518373</latitude><longitude>-121.411779</longitude><price>90000</price><sale_date>Tue May 20 00:00:00 EDT 2008</sale_date><sq__ft>868</sq__ft><state>CA</state><street>5980 79TH ST</street><type>Residential</type><zip>95824</zip></record><record><baths>1</baths><beds>3</beds><city>SACRAMENTO</city><latitude>38.51055</latitude><longitude>-121.414768</longitude><price>92000</price><sale_date>Tue May 20 00:00:00 EDT 2008</sale_date><sq__ft>924</sq__ft><state>CA</state><street>7607 ELDER CREEK RD</street><type>Residential</type><zip>95824</zip></record><record><baths>1</baths><beds>2</beds><city>SACRAMENTO</city><latitude>38.53942</latitude><longitude>-121.446894</longitude><price>93675</price><sale_date>Tue May 20 00:00:00 EDT 2008</sale_date><sq__ft>610</sq__ft><state>CA</state><street>5028 14TH AVE</street><type>Residential</type><zip>95820</zip></record><record><baths>0</baths><beds>0</beds><city>RANCHO MURIETA</city><latitude>38.492287</latitude><longitude>-121.100032</longitude><price>97750</price><sale_date>Tue May 20 00:00:00 EDT 2008</sale_date><sq__ft>0</sq__ft><state>CA</state><street>14788 NATCHEZ CT</street><type>Residential</type><zip>95683</zip></record><record><baths>1</baths><beds>2</beds><city>SACRAMENTO</city><latitude>38.621998</latitude><longitude>-121.442238</longitude><price>98000</price><sale_date>Tue May 20 00:00:00 EDT 2008</sale_date><sq__ft>1220</sq__ft><state>CA</state><street>1069 ACACIA AVE</street><type>Residential</type><zip>95815</zip></record><record><baths>1</baths><beds>1</beds><city>ELK GROVE</city><latitude>38.423251</latitude><longitude>-121.444489</longitude><price>98000</price><sale_date>Tue May 20 00:00:00 EDT 2008</sale_date><sq__ft>722</sq__ft><state>CA</state><street>5201 LAGUNA OAKS DR Unit 199</street><type>Condo</type><zip>95758</zip></record><record><baths>1</baths><beds>3</beds><city>SACRAMENTO</city><latitude>38.588672</latitude><longitude>-121.373916</longitude><price>99000</price><sale_date>Tue May 20 00:00:00 EDT 2008</sale_date><sq__ft>1643</sq__ft><state>CA</state><street>3847 LAS PASAS WAY</street><type>Residential</type><zip>95864</zip></record><record><baths>1</baths><beds>1</beds><city>ELK GROVE</city><latitude>38.423251</latitude><longitude>-121.444489</longitude><price>100000</price><sale_date>Tue May 20 00:00:00 EDT 2008</sale_date><sq__ft>722</sq__ft><state>CA</state><street>5201 LAGUNA OAKS DR Unit 172</street><type>Condo</type><zip>95758</zip></record><record><baths>1</baths><beds>3</beds><city>GALT</city><latitude>38.241514</latitude><longitude>-121.312199</longitude><price>106716</price><sale_date>Tue May 20 00:00:00 EDT 2008</sale_date><sq__ft>1080</sq__ft><state>CA</state><street>1121 CREEKSIDE WAY</street><type>Residential</type><zip>95632</zip></record><record><baths>1</baths><beds>3</beds><city>SACRAMENTO</city><latitude>38.52712</latitude><longitude>-121.435348</longitude><price>111000</price><sale_date>Tue May 20 00:00:00 EDT 2008</sale_date><sq__ft>1039</sq__ft><state>CA</state><street>5307 CABRILLO WAY</street><type>Residential</type><zip>95820</zip></record><record><baths>1</baths><beds>3</beds><city>NORTH HIGHLANDS</city><latitude>38.67895</latitude><longitude>-121.379406</longitude><price>111000</price><sale_date>Tue May 20 00:00:00 EDT 2008</sale_date><sq__ft>1051</sq__ft><state>CA</state><street>3725 DON JULIO BLVD</street><type>Residential</type><zip>95660</zip></record><record><baths>2</baths><beds>2</beds><city>SACRAMENTO</city><latitude>38.682279</latitude><longitude>-121.352817</longitude><price>114800</price><sale_date>Tue May 20 00:00:00 EDT 2008</sale_date><sq__ft>967</sq__ft><state>CA</state><street>4803 MCCLOUD DR</street><type>Residential</type><zip>95842</zip></record><record><baths>1</baths><beds>3</beds><city>RANCHO CORDOVA</city><latitude>38.587156</latitude><longitude>-121.295778</longitude><price>120108</price><sale_date>Tue May 20 00:00:00 EDT 2008</sale_date><sq__ft>1098</sq__ft><state>CA</state><street>10542 SILVERWOOD WAY</street><type>Residential</type><zip>95670</zip></record><record><baths>1</baths><beds>3</beds><city>SACRAMENTO</city><latitude>38.518942</latitude><longitude>-121.430158</longitude><price>123225</price><sale_date>Tue May 20 00:00:00 EDT 2008</sale_date><sq__ft>1050</sq__ft><state>CA</state><street>6318 39TH AVE</street><type>Residential</type><zip>95824</zip></record><record><baths>2</baths><beds>3</beds><city>SACRAMENTO</city><latitude>38.636565</latitude><longitude>-121.460383</longitude><price>123750</price><sale_date>Tue May 20 00:00:00 EDT 2008</sale_date><sq__ft>1110</sq__ft><state>CA</state><street>211 MCDANIEL CIR</street><type>Residential</type><zip>95838</zip></record><record><baths>1</baths><beds>3</beds><city>NORTH HIGHLANDS</city><latitude>38.650445</latitude><longitude>-121.374861</longitude><price>125000</price><sale_date>Tue May 20 00:00:00 EDT 2008</sale_date><sq__ft>888</sq__ft><state>CA</state><street>3800 LYNHURST WAY</street><type>Residential</type><zip>95660</zip></record><record><baths>2</baths><beds>3</beds><city>SACRAMENTO</city><latitude>38.514665</latitude><longitude>-121.480411</longitude><price>125000</price><sale_date>Tue May 20 00:00:00 EDT 2008</sale_date><sq__ft>1120</sq__ft><state>CA</state><street>6139 HERMOSA ST</street><type>Residential</type><zip>95822</zip></record><record><baths>2</baths><beds>3</beds><city>ELVERTA</city><latitude>38.717976</latitude><longitude>-121.407684</longitude><price>126000</price><sale_date>Tue May 20 00:00:00 EDT 2008</sale_date><sq__ft>1080</sq__ft><state>CA</state><street>2505 RHINE WAY</street><type>Residential</type><zip>95626</zip></record><record><baths>1</baths><beds>3</beds><city>NORTH HIGHLANDS</city><latitude>38.66654</latitude><longitude>-121.378298</longitude><price>129000</price><sale_date>Tue May 20 00:00:00 EDT 2008</sale_date><sq__ft>957</sq__ft><state>CA</state><street>3692 PAYNE WAY</street><type>Residential</type><zip>95660</zip></record><record><baths>1</baths><beds>2</beds><city>SACRAMENTO</city><latitude>38.637678</latitude><longitude>-121.452476</longitude><price>134000</price><sale_date>Tue May 20 00:00:00 EDT 2008</sale_date><sq__ft>952</sq__ft><state>CA</state><street>604 MORRISON AVE</street><type>Residential</type><zip>95838</zip></record><record><baths>2</baths><beds>3</beds><city>SACRAMENTO</city><latitude>38.658478</latitude><longitude>-121.450409</longitude><price>135000</price><sale_date>Tue May 20 00:00:00 EDT 2008</sale_date><sq__ft>1211</sq__ft><state>CA</state><street>648 SANTA ANA AVE</street><type>Residential</type><zip>95838</zip></record><record><baths>2</baths><beds>3</beds><city>SACRAMENTO</city><latitude>38.61779</latitude><longitude>-121.436765</longitude><price>135500</price><sale_date>Tue May 20 00:00:00 EDT 2008</sale_date><sq__ft>1264</sq__ft><state>CA</state><street>14 ASHLEY OAKS CT</street><type>Residential</type><zip>95815</zip></record><record><baths>1</baths><beds>3</beds><city>SACRAMENTO</city><latitude>38.623817</latitude><longitude>-121.477827</longitude><price>140000</price><sale_date>Tue May 20 00:00:00 EDT 2008</sale_date><sq__ft>1080</sq__ft><state>CA</state><street>3174 NORTHVIEW DR</street><type>Residential</type><zip>95833</zip></record><record><baths>2</baths><beds>3</beds><city>GALT</city><latitude>38.270617</latitude><longitude>-121.299205</longitude><price>140000</price><sale_date>Tue May 20 00:00:00 EDT 2008</sale_date><sq__ft>1266</sq__ft><state>CA</state><street>840 TRANQUIL LN</street><type>Residential</type><zip>95632</zip></record><record><baths>2</baths><beds>2</beds><city>FAIR OAKS</city><latitude>38.662785</latitude><longitude>-121.276272</longitude><price>142500</price><sale_date>Tue May 20 00:00:00 EDT 2008</sale_date><sq__ft>994</sq__ft><state>CA</state><street>5333 PRIMROSE DR Unit 19A</street><type>Condo</type><zip>95628</zip></record><record><baths>2</baths><beds>3</beds><city>SACRAMENTO</city><latitude>38.631056</latitude><longitude>-121.48508</longitude><price>143500</price><sale_date>Tue May 20 00:00:00 EDT 2008</sale_date><sq__ft>1202</sq__ft><state>CA</state><street>1035 MILLET WAY</street><type>Residential</type><zip>95834</zip></record><record><baths>0</baths><beds>0</beds><city>ELK GROVE</city><latitude>38.423251</latitude><longitude>-121.444489</longitude><price>145000</price><sale_date>Tue May 20 00:00:00 EDT 2008</sale_date><sq__ft>0</sq__ft><state>CA</state><street>5201 LAGUNA OAKS DR Unit 126</street><type>Condo</type><zip>95758</zip></record><record><baths>1</baths><beds>2</beds><city>SACRAMENTO</city><latitude>38.532727</latitude><longitude>-121.470783</longitude><price>145000</price><sale_date>Tue May 20 00:00:00 EDT 2008</sale_date><sq__ft>722</sq__ft><state>CA</state><street>3328 22ND AVE</street><type>Residential</type><zip>95820</zip></record><record><baths>2</baths><beds>4</beds><city>SACRAMENTO</city><latitude>38.488623</latitude><longitude>-121.410582</longitude><price>145000</price><sale_date>Tue May 20 00:00:00 EDT 2008</sale_date><sq__ft>1448</sq__ft><state>CA</state><street>8001 HARTWICK WAY</street><type>Residential</type><zip>95828</zip></record><record><baths>2</baths><beds>3</beds><city>SACRAMENTO</city><latitude>38.488611</latitude><longitude>-121.412808</longitude><price>145000</price><sale_date>Tue May 20 00:00:00 EDT 2008</sale_date><sq__ft>1188</sq__ft><state>CA</state><street>7812 HARTWICK WAY</street><type>Residential</type><zip>95828</zip></record><record><baths>2</baths><beds>4</beds><city>NORTH HIGHLANDS</city><latitude>38.692915</latitude><longitude>-121.367497</longitude><price>146000</price><sale_date>Tue May 20 00:00:00 EDT 2008</sale_date><sq__ft>1183</sq__ft><state>CA</state><street>4207 PAINTER WAY</street><type>Residential</type><zip>95660</zip></record><record><baths>1</baths><beds>3</beds><city>SACRAMENTO</city><latitude>38.487444</latitude><longitude>-121.491366</longitude><price>148500</price><sale_date>Tue May 20 00:00:00 EDT 2008</sale_date><sq__ft>1320</sq__ft><state>CA</state><street>7458 WINKLEY WAY</street><type>Residential</type><zip>95822</zip></record><record><baths>2</baths><beds>3</beds><city>SACRAMENTO</city><latitude>38.473288</latitude><longitude>-121.3963</longitude><price>149000</price><sale_date>Tue May 20 00:00:00 EDT 2008</sale_date><sq__ft>1117</sq__ft><state>CA</state><street>8354 SUNRISE WOODS WAY</street><type>Residential</type><zip>95828</zip></record><record><baths>2</baths><beds>3</beds><city>SACRAMENTO</city><latitude>38.482876</latitude><longitude>-121.405912</longitude><price>150000</price><sale_date>Tue May 20 00:00:00 EDT 2008</sale_date><sq__ft>1364</sq__ft><state>CA</state><street>8116 COTTONMILL CIR</street><type>Residential</type><zip>95828</zip></record><record><baths>2</baths><beds>4</beds><city>SACRAMENTO</city><latitude>38.484834</latitude><longitude>-121.449316</longitude><price>150000</price><sale_date>Tue May 20 00:00:00 EDT 2008</sale_date><sq__ft>1310</sq__ft><state>CA</state><street>4660 CEDARWOOD WAY</street><type>Residential</type><zip>95823</zip></record><record><baths>2</baths><beds>2</beds><city>ELK GROVE</city><latitude>38.420138</latitude><longitude>-121.412179</longitude><price>152000</price><sale_date>Tue May 20 00:00:00 EDT 2008</sale_date><sq__ft>1006</sq__ft><state>CA</state><street>9254 HARROGATE WAY</street><type>Residential</type><zip>95758</zip></record><record><baths>2</baths><beds>3</beds><city>CITRUS HEIGHTS</city><latitude>38.693724</latitude><longitude>-121.307169</longitude><price>156000</price><sale_date>Tue May 20 00:00:00 EDT 2008</sale_date><sq__ft>1104</sq__ft><state>CA</state><street>6716 TAREYTON WAY</street><type>Residential</type><zip>95621</zip></record><record><baths>1</baths><beds>2</beds><city>SACRAMENTO</city><latitude>38.609982</latitude><longitude>-121.419263</longitude><price>156000</price><sale_date>Tue May 20 00:00:00 EDT 2008</sale_date><sq__ft>810</sq__ft><state>CA</state><street>2028 ROBERT WAY</street><type>Residential</type><zip>95825</zip></record><record><baths>2</baths><beds>2</beds><city>ELK GROVE</city><latitude>38.41875</latitude><longitude>-121.370019</longitude><price>156000</price><sale_date>Tue May 20 00:00:00 EDT 2008</sale_date><sq__ft>1123</sq__ft><state>CA</state><street>9346 AIZENBERG CIR</street><type>Residential</type><zip>95624</zip></record><record><baths>1</baths><beds>2</beds><city>SACRAMENTO</city><latitude>38.67273</latitude><longitude>-121.359645</longitude><price>157788</price><sale_date>Tue May 20 00:00:00 EDT 2008</sale_date><sq__ft>904</sq__ft><state>CA</state><street>4524 LOCH HAVEN WAY</street><type>Residential</type><zip>95842</zip></record><record><baths>2</baths><beds>3</beds><city>CITRUS HEIGHTS</city><latitude>38.720653</latitude><longitude>-121.302241</longitude><price>161653</price><sale_date>Tue May 20 00:00:00 EDT 2008</sale_date><sq__ft>1156</sq__ft><state>CA</state><street>7140 BLUE SPRINGS WAY</street><type>Residential</type><zip>95621</zip></record><record><baths>1</baths><beds>2</beds><city>SACRAMENTO</city><latitude>38.541965</latitude><longitude>-121.452132</longitude><price>161829</price><sale_date>Tue May 20 00:00:00 EDT 2008</sale_date><sq__ft>1321</sq__ft><state>CA</state><street>4631 11TH AVE</street><type>Residential</type><zip>95820</zip></record><record><baths>2</baths><beds>3</beds><city>ANTELOPE</city><latitude>38.715346</latitude><longitude>-121.388163</longitude><price>165000</price><sale_date>Tue May 20 00:00:00 EDT 2008</sale_date><sq__ft>1392</sq__ft><state>CA</state><street>3228 BAGGAN CT</street><type>Residential</type><zip>95843</zip></record><record><baths>2</baths><beds>3</beds><city>SACRAMENTO</city><latitude>38.448288</latitude><longitude>-121.420719</longitude><price>168000</price><sale_date>Tue May 20 00:00:00 EDT 2008</sale_date><sq__ft>1439</sq__ft><state>CA</state><street>8515 DARTFORD DR</street><type>Residential</type><zip>95823</zip></record><record><baths>2</baths><beds>3</beds><city>SACRAMENTO</city><latitude>38.69951</latitude><longitude>-121.359989</longitude><price>169000</price><sale_date>Tue May 20 00:00:00 EDT 2008</sale_date><sq__ft>1159</sq__ft><state>CA</state><street>4500 TIPPWOOD WAY</street><type>Residential</type><zip>95842</zip></record><record><baths>2</baths><beds>3</beds><city>RANCHO CORDOVA</city><latitude>38.591477</latitude><longitude>-121.31534</longitude><price>175000</price><sale_date>Tue May 20 00:00:00 EDT 2008</sale_date><sq__ft>1671</sq__ft><state>CA</state><street>2460 EL ROCCO WAY</street><type>Residential</type><zip>95670</zip></record><record><baths>2</baths><beds>3</beds><city>SACRAMENTO</city><latitude>38.457654</latitude><longitude>-121.431381</longitude><price>176250</price><sale_date>Tue May 20 00:00:00 EDT 2008</sale_date><sq__ft>1740</sq__ft><state>CA</state><street>8244 SUNBIRD WAY</street><type>Residential</type><zip>95823</zip></record><record><baths>2</baths><beds>3</beds><city>SACRAMENTO</city><latitude>38.461283</latitude><longitude>-121.434322</longitude><price>179000</price><sale_date>Tue May 20 00:00:00 EDT 2008</sale_date><sq__ft>1265</sq__ft><state>CA</state><street>5841 VALLEY VALE WAY</street><type>Residential</type><zip>95823</zip></record><record><baths>2</baths><beds>2</beds><city>ANTELOPE</city><latitude>38.710889</latitude><longitude>-121.358876</longitude><price>180000</price><sale_date>Tue May 20 00:00:00 EDT 2008</sale_date><sq__ft>1007</sq__ft><state>CA</state><street>7863 CRESTLEIGH CT</street><type>Residential</type><zip>95843</zip></record><record><baths>2</baths><beds>3</beds><city>ELK GROVE</city><latitude>38.417649</latitude><longitude>-121.420294</longitude><price>180400</price><sale_date>Tue May 20 00:00:00 EDT 2008</sale_date><sq__ft>1716</sq__ft><state>CA</state><street>7129 SPRINGMONT DR</street><type>Residential</type><zip>95758</zip></record><record><baths>2</baths><beds>4</beds><city>ELK GROVE</city><latitude>38.417182</latitude><longitude>-121.397231</longitude><price>182000</price><sale_date>Tue May 20 00:00:00 EDT 2008</sale_date><sq__ft>1685</sq__ft><state>CA</state><street>8284 RED FOX WAY</street><type>Residential</type><zip>95758</zip></record><record><baths>2</baths><beds>4</beds><city>RANCHO CORDOVA</city><latitude>38.592383</latitude><longitude>-121.318669</longitude><price>184500</price><sale_date>Tue May 20 00:00:00 EDT 2008</sale_date><sq__ft>1829</sq__ft><state>CA</state><street>2219 EL CANTO CIR</street><type>Residential</type><zip>95670</zip></record><record><baths>2</baths><beds>3</beds><city>ELK GROVE</city><latitude>38.435471</latitude><longitude>-121.441173</longitude><price>185000</price><sale_date>Tue May 20 00:00:00 EDT 2008</sale_date><sq__ft>1555</sq__ft><state>CA</state><street>8907 GEMWOOD WAY</street><type>Residential</type><zip>95758</zip></record><record><baths>2</baths><beds>4</beds><city>CARMICHAEL</city><latitude>38.666564</latitude><longitude>-121.325717</longitude><price>189000</price><sale_date>Tue May 20 00:00:00 EDT 2008</sale_date><sq__ft>1120</sq__ft><state>CA</state><street>5925 MALEVILLE AVE</street><type>Residential</type><zip>95608</zip></record><record><baths>2</baths><beds>3</beds><city>CITRUS HEIGHTS</city><latitude>38.718693</latitude><longitude>-121.303619</longitude><price>194000</price><sale_date>Tue May 20 00:00:00 EDT 2008</sale_date><sq__ft>1137</sq__ft><state>CA</state><street>7031 CANEVALLEY CIR</street><type>Residential</type><zip>95621</zip></record><record><baths>1</baths><beds>3</beds><city>SACRAMENTO</city><latitude>38.543697</latitude><longitude>-121.366683</longitude><price>195000</price><sale_date>Tue May 20 00:00:00 EDT 2008</sale_date><sq__ft>1174</sq__ft><state>CA</state><street>3949 WILDROSE WAY</street><type>Residential</type><zip>95826</zip></record><record><baths>2</baths><beds>3</beds><city>ANTELOPE</city><latitude>38.704407</latitude><longitude>-121.36113</longitude><price>200000</price><sale_date>Tue May 20 00:00:00 EDT 2008</sale_date><sq__ft>1393</sq__ft><state>CA</state><street>4437 MITCHUM CT</street><type>Residential</type><zip>95843</zip></record><record><baths>1</baths><beds>3</beds><city>CAMERON PARK</city><latitude>38.694052</latitude><longitude>-120.995589</longitude><price>201000</price><sale_date>Tue May 20 00:00:00 EDT 2008</sale_date><sq__ft>0</sq__ft><state>CA</state><street>2778 KAWEAH CT</street><type>Residential</type><zip>95682</zip></record><record><baths>2</baths><beds>4</beds><city>LINCOLN</city><latitude>38.879192</latitude><longitude>-121.309477</longitude><price>202500</price><sale_date>Tue May 20 00:00:00 EDT 2008</sale_date><sq__ft>0</sq__ft><state>CA</state><street>1636 ALLENWOOD CIR</street><type>Residential</type><zip>95648</zip></record><record><baths>2</baths><beds>3</beds><city>SACRAMENTO</city><latitude>38.461296</latitude><longitude>-121.390858</longitude><price>205000</price><sale_date>Tue May 20 00:00:00 EDT 2008</sale_date><sq__ft>1289</sq__ft><state>CA</state><street>8151 QUAIL RIDGE CT</street><type>Residential</type><zip>95828</zip></record><record><baths>2</baths><beds>4</beds><city>SACRAMENTO</city><latitude>38.655887</latitude><longitude>-121.446119</longitude><price>205000</price><sale_date>Tue May 20 00:00:00 EDT 2008</sale_date><sq__ft>1799</sq__ft><state>CA</state><street>4899 WIND CREEK DR</street><type>Residential</type><zip>95838</zip></record><record><baths>2</baths><beds>3</beds><city>PLACERVILLE</city><latitude>38.74458</latitude><longitude>-120.794254</longitude><price>205000</price><sale_date>Tue May 20 00:00:00 EDT 2008</sale_date><sq__ft>0</sq__ft><state>CA</state><street>2370 BIG CANYON CREEK RD</street><type>Residential</type><zip>95667</zip></record><record><baths>3</baths><beds>4</beds><city>SACRAMENTO</city><latitude>38.443253</latitude><longitude>-121.431992</longitude><price>205000</price><sale_date>Tue May 20 00:00:00 EDT 2008</sale_date><sq__ft>1953</sq__ft><state>CA</state><street>6049 HAMBURG WAY</street><type>Residential</type><zip>95823</zip></record><record><baths>1</baths><beds>2</beds><city>SACRAMENTO</city><latitude>38.536741</latitude><longitude>-121.42115</longitude><price>207000</price><sale_date>Tue May 20 00:00:00 EDT 2008</sale_date><sq__ft>723</sq__ft><state>CA</state><street>4232 71ST ST</street><type>Residential</type><zip>95820</zip></record><record><baths>2</baths><beds>2</beds><city>CAMERON PARK</city><latitude>38.69437</latitude><longitude>-120.996602</longitude><price>210000</price><sale_date>Tue May 20 00:00:00 EDT 2008</sale_date><sq__ft>0</sq__ft><state>CA</state><street>3361 BOW MAR CT</street><type>Residential</type><zip>95682</zip></record><record><baths>1</baths><beds>2</beds><city>PLACERVILLE</city><latitude>38.739774</latitude><longitude>-120.860243</longitude><price>211500</price><sale_date>Tue May 20 00:00:00 EDT 2008</sale_date><sq__ft>948</sq__ft><state>CA</state><street>1889 COLD SPRINGS RD</street><type>Residential</type><zip>95667</zip></record><record><baths>2</baths><beds>4</beds><city>CITRUS HEIGHTS</city><latitude>38.696489</latitude><longitude>-121.328555</longitude><price>215000</price><sale_date>Tue May 20 00:00:00 EDT 2008</sale_date><sq__ft>1578</sq__ft><state>CA</state><street>5805 HIMALAYA WAY</street><type>Residential</type><zip>95621</zip></record><record><baths>2</baths><beds>3</beds><city>CITRUS HEIGHTS</city><latitude>38.710388</latitude><longitude>-121.261096</longitude><price>215000</price><sale_date>Tue May 20 00:00:00 EDT 2008</sale_date><sq__ft>1317</sq__ft><state>CA</state><street>7944 SYLVAN OAK WAY</street><type>Residential</type><zip>95610</zip></record><record><baths>0</baths><beds>0</beds><city>SACRAMENTO</city><latitude>38.626582</latitude><longitude>-121.52151</longitude><price>215500</price><sale_date>Tue May 20 00:00:00 EDT 2008</sale_date><sq__ft>0</sq__ft><state>CA</state><street>3139 SPOONWOOD WAY Unit 1</street><type>Residential</type><zip>95833</zip></record><record><baths>1</baths><beds>3</beds><city>SACRAMENTO</city><latitude>38.513066</latitude><longitude>-121.451909</longitude><price>222381</price><sale_date>Tue May 20 00:00:00 EDT 2008</sale_date><sq__ft>1360</sq__ft><state>CA</state><street>6217 LEOLA WAY</street><type>Residential</type><zip>95824</zip></record><record><baths>0</baths><beds>0</beds><city>SACRAMENTO</city><latitude>38.588816</latitude><longitude>-121.408549</longitude><price>225000</price><sale_date>Tue May 20 00:00:00 EDT 2008</sale_date><sq__ft>0</sq__ft><state>CA</state><street>2340 HURLEY WAY</street><type>Condo</type><zip>95825</zip></record><record><baths>2</baths><beds>3</beds><city>SACRAMENTO</city><latitude>38.624762</latitude><longitude>-121.522775</longitude><price>225000</price><sale_date>Tue May 20 00:00:00 EDT 2008</sale_date><sq__ft>1522</sq__ft><state>CA</state><street>3035 BRUNNET LN</street><type>Residential</type><zip>95833</zip></record><record><baths>2</baths><beds>4</beds><city>SACRAMENTO</city><latitude>38.606603</latitude><longitude>-121.394147</longitude><price>225000</price><sale_date>Tue May 20 00:00:00 EDT 2008</sale_date><sq__ft>1751</sq__ft><state>CA</state><street>3025 EL PRADO WAY</street><type>Residential</type><zip>95825</zip></record><record><baths>2</baths><beds>3</beds><city>ELK GROVE</city><latitude>38.419214</latitude><longitude>-121.348533</longitude><price>225000</price><sale_date>Tue May 20 00:00:00 EDT 2008</sale_date><sq__ft>1465</sq__ft><state>CA</state><street>9387 GRANITE FALLS CT</street><type>Residential</type><zip>95624</zip></record><record><baths>2</baths><beds>4</beds><city>SACRAMENTO</city><latitude>38.55821</latitude><longitude>-121.355022</longitude><price>228000</price><sale_date>Tue May 20 00:00:00 EDT 2008</sale_date><sq__ft>1605</sq__ft><state>CA</state><street>9257 CALDERA WAY</street><type>Residential</type><zip>95826</zip></record><record><baths>2</baths><beds>4</beds><city>RIO LINDA</city><latitude>38.702893</latitude><longitude>-121.454949</longitude><price>229665</price><sale_date>Tue May 20 00:00:00 EDT 2008</sale_date><sq__ft>1475</sq__ft><state>CA</state><street>441 ARLINGDALE CIR</street><type>Residential</type><zip>95673</zip></record><record><baths>1</baths><beds>3</beds><city>MEADOW VISTA</city><latitude>39.008159</latitude><longitude>-121.03623</longitude><price>230000</price><sale_date>Tue May 20 00:00:00 EDT 2008</sale_date><sq__ft>1216</sq__ft><state>CA</state><street>2284 LOS ROBLES RD</street><type>Residential</type><zip>95722</zip></record><record><baths>2</baths><beds>2</beds><city>FAIR OAKS</city><latitude>38.665644</latitude><longitude>-121.259969</longitude><price>230000</price><sale_date>Tue May 20 00:00:00 EDT 2008</sale_date><sq__ft>1315</sq__ft><state>CA</state><street>8164 CHENIN BLANC LN</street><type>Residential</type><zip>95628</zip></record><record><baths>2</baths><beds>3</beds><city>ELK GROVE</city><latitude>38.390557</latitude><longitude>-121.449805</longitude><price>230000</price><sale_date>Tue May 20 00:00:00 EDT 2008</sale_date><sq__ft>1567</sq__ft><state>CA</state><street>4620 CHAMBERLIN CIR</street><type>Residential</type><zip>95757</zip></record><record><baths>2</baths><beds>3</beds><city>SACRAMENTO</city><latitude>38.672495</latitude><longitude>-121.515251</longitude><price>234000</price><sale_date>Tue May 20 00:00:00 EDT 2008</sale_date><sq__ft>1776</sq__ft><state>CA</state><street>5340 BIRK WAY</street><type>Residential</type><zip>95835</zip></record><record><baths>2</baths><beds>3</beds><city>SACRAMENTO</city><latitude>38.661658</latitude><longitude>-121.540633</longitude><price>235000</price><sale_date>Tue May 20 00:00:00 EDT 2008</sale_date><sq__ft>2187</sq__ft><state>CA</state><street>51 ANJOU CIR</street><type>Residential</type><zip>95835</zip></record><record><baths>1</baths><beds>3</beds><city>SACRAMENTO</city><latitude>38.534596</latitude><longitude>-121.493121</longitude><price>236250</price><sale_date>Tue May 20 00:00:00 EDT 2008</sale_date><sq__ft>1291</sq__ft><state>CA</state><street>2125 22ND AVE</street><type>Residential</type><zip>95822</zip></record><record><baths>0</baths><beds>0</beds><city>FOLSOM</city><latitude>38.6457</latitude><longitude>-121.1197</longitude><price>240000</price><sale_date>Tue May 20 00:00:00 EDT 2008</sale_date><sq__ft>0</sq__ft><state>CA</state><street>611 BLOSSOM ROCK LN</street><type>Condo</type><zip>95630</zip></record><record><baths>0</baths><beds>0</beds><city>ELK GROVE</city><latitude>38.43742</latitude><longitude>-121.372876</longitude><price>242000</price><sale_date>Tue May 20 00:00:00 EDT 2008</sale_date><sq__ft>0</sq__ft><state>CA</state><street>8830 ADUR RD</street><type>Residential</type><zip>95624</zip></record><record><baths>2</baths><beds>3</beds><city>SACRAMENTO</city><latitude>38.699489</latitude><longitude>-121.361828</longitude><price>245000</price><sale_date>Tue May 20 00:00:00 EDT 2008</sale_date><sq__ft>1503</sq__ft><state>CA</state><street>7344 BUTTERBALL WAY</street><type>Residential</type><zip>95842</zip></record><record><baths>3</baths><beds>4</beds><city>SACRAMENTO</city><latitude>38.459711</latitude><longitude>-121.384283</longitude><price>245000</price><sale_date>Tue May 20 00:00:00 EDT 2008</sale_date><sq__ft>2491</sq__ft><state>CA</state><street>8219 GWINHURST CIR</street><type>Residential</type><zip>95828</zip></record><record><baths>1</baths><beds>2</beds><city>SACRAMENTO</city><latitude>38.562296</latitude><longitude>-121.467489</longitude><price>245000</price><sale_date>Tue May 20 00:00:00 EDT 2008</sale_date><sq__ft>1269</sq__ft><state>CA</state><street>3240 S ST</street><type>Residential</type><zip>95816</zip></record><record><baths>0</baths><beds>0</beds><city>SACRAMENTO</city><latitude>38.676658</latitude><longitude>-121.528128</longitude><price>250000</price><sale_date>Tue May 20 00:00:00 EDT 2008</sale_date><sq__ft>0</sq__ft><state>CA</state><street>221 PICASSO CIR</street><type>Residential</type><zip>95835</zip></record><record><baths>2</baths><beds>3</beds><city>ORANGEVALE</city><latitude>38.669882</latitude><longitude>-121.213533</longitude><price>250000</price><sale_date>Tue May 20 00:00:00 EDT 2008</sale_date><sq__ft>1176</sq__ft><state>CA</state><street>5706 GREENACRES WAY</street><type>Residential</type><zip>95662</zip></record><record><baths>2</baths><beds>4</beds><city>ORANGEVALE</city><latitude>38.692199</latitude><longitude>-121.250975</longitude><price>250000</price><sale_date>Tue May 20 00:00:00 EDT 2008</sale_date><sq__ft>1456</sq__ft><state>CA</state><street>6900 LONICERA DR</street><type>Residential</type><zip>95662</zip></record><record><baths>2</baths><beds>3</beds><city>ROSEVILLE</city><latitude>38.725283</latitude><longitude>-121.297953</longitude><price>250000</price><sale_date>Tue May 20 00:00:00 EDT 2008</sale_date><sq__ft>1498</sq__ft><state>CA</state><street>419 DAWNRIDGE RD</street><type>Residential</type><zip>95678</zip></record><record><baths>2</baths><beds>3</beds><city>ANTELOPE</city><latitude>38.710221</latitude><longitude>-121.341651</longitude><price>255000</price><sale_date>Tue May 20 00:00:00 EDT 2008</sale_date><sq__ft>1574</sq__ft><state>CA</state><street>5312 MARBURY WAY</street><type>Residential</type><zip>95843</zip></record><record><baths>4</baths><beds>5</beds><city>CITRUS HEIGHTS</city><latitude>38.682358</latitude><longitude>-121.272876</longitude><price>256054</price><sale_date>Tue May 20 00:00:00 EDT 2008</sale_date><sq__ft>2085</sq__ft><state>CA</state><street>6344 BONHAM CIR</street><type>Multi-Family</type><zip>95610</zip></record><record><baths>2</baths><beds>3</beds><city>SACRAMENTO</city><latitude>38.45967</latitude><longitude>-121.360461</longitude><price>257729</price><sale_date>Tue May 20 00:00:00 EDT 2008</sale_date><sq__ft>2170</sq__ft><state>CA</state><street>8207 YORKTON WAY</street><type>Residential</type><zip>95829</zip></record><record><baths>2</baths><beds>4</beds><city>ELK GROVE</city><latitude>38.409634</latitude><longitude>-121.410787</longitude><price>260000</price><sale_date>Tue May 20 00:00:00 EDT 2008</sale_date><sq__ft>1595</sq__ft><state>CA</state><street>7922 MANSELL WAY</street><type>Residential</type><zip>95758</zip></record><record><baths>2</baths><beds>3</beds><city>ANTELOPE</city><latitude>38.705849</latitude><longitude>-121.334701</longitude><price>261000</price><sale_date>Tue May 20 00:00:00 EDT 2008</sale_date><sq__ft>1567</sq__ft><state>CA</state><street>5712 MELBURY CIR</street><type>Residential</type><zip>95843</zip></record><record><baths>2</baths><beds>4</beds><city>LINCOLN</city><latitude>38.879084</latitude><longitude>-121.298586</longitude><price>261800</price><sale_date>Tue May 20 00:00:00 EDT 2008</sale_date><sq__ft>0</sq__ft><state>CA</state><street>632 NEWBRIDGE LN</street><type>Residential</type><zip>95648</zip></record><record><baths>2</baths><beds>4</beds><city>SACRAMENTO</city><latitude>38.482704</latitude><longitude>-121.500433</longitude><price>264469</price><sale_date>Tue May 20 00:00:00 EDT 2008</sale_date><sq__ft>1253</sq__ft><state>CA</state><street>1570 GLIDDEN AVE</street><type>Residential</type><zip>95822</zip></record><record><baths>3</baths><beds>4</beds><city>ANTELOPE</city><latitude>38.717042</latitude><longitude>-121.35468</longitude><price>265000</price><sale_date>Tue May 20 00:00:00 EDT 2008</sale_date><sq__ft>1768</sq__ft><state>CA</state><street>8108 FILIFERA WAY</street><type>Residential</type><zip>95843</zip></record><record><baths>0</baths><beds>0</beds><city>SACRAMENTO</city><latitude>38.676937</latitude><longitude>-121.529244</longitude><price>270000</price><sale_date>Tue May 20 00:00:00 EDT 2008</sale_date><sq__ft>0</sq__ft><state>CA</state><street>230 BANKSIDE WAY</street><type>Residential</type><zip>95835</zip></record><record><baths>3</baths><beds>4</beds><city>SACRAMENTO</city><latitude>38.671807</latitude><longitude>-121.498274</longitude><price>270000</price><sale_date>Tue May 20 00:00:00 EDT 2008</sale_date><sq__ft>2030</sq__ft><state>CA</state><street>5342 CALABRIA WAY</street><type>Residential</type><zip>95835</zip></record><record><baths>2</baths><beds>3</beds><city>SACRAMENTO</city><latitude>38.665704</latitude><longitude>-121.529096</longitude><price>270000</price><sale_date>Tue May 20 00:00:00 EDT 2008</sale_date><sq__ft>1531</sq__ft><state>CA</state><street>47 NAPONEE CT</street><type>Residential</type><zip>95835</zip></record><record><baths>0</baths><beds>0</beds><city>SACRAMENTO</city><latitude>38.647961</latitude><longitude>-121.543162</longitude><price>270000</price><sale_date>Tue May 20 00:00:00 EDT 2008</sale_date><sq__ft>0</sq__ft><state>CA</state><street>4236 ADRIATIC SEA WAY</street><type>Residential</type><zip>95834</zip></record><record><baths>3</baths><beds>4</beds><city>ELK GROVE</city><latitude>38.435288</latitude><longitude>-121.375703</longitude><price>275000</price><sale_date>Tue May 20 00:00:00 EDT 2008</sale_date><sq__ft>1653</sq__ft><state>CA</state><street>8864 REMBRANT CT</street><type>Residential</type><zip>95624</zip></record><record><baths>2</baths><beds>4</beds><city>ELK GROVE</city><latitude>38.411522</latitude><longitude>-121.481406</longitude><price>275000</price><sale_date>Tue May 20 00:00:00 EDT 2008</sale_date><sq__ft>2056</sq__ft><state>CA</state><street>9455 SEA CLIFF WAY</street><type>Residential</type><zip>95758</zip></record><record><baths>3</baths><beds>4</beds><city>ELK GROVE</city><latitude>38.404934</latitude><longitude>-121.352405</longitude><price>280000</price><sale_date>Tue May 20 00:00:00 EDT 2008</sale_date><sq__ft>2494</sq__ft><state>CA</state><street>9720 LITTLE HARBOR WAY</street><type>Residential</type><zip>95624</zip></record><record><baths>2</baths><beds>3</beds><city>FAIR OAKS</city><latitude>38.660322</latitude><longitude>-121.230101</longitude><price>286013</price><sale_date>Tue May 20 00:00:00 EDT 2008</sale_date><sq__ft>1450</sq__ft><state>CA</state><street>8806 PHOENIX AVE</street><type>Residential</type><zip>95628</zip></record><record><baths>2</baths><beds>4</beds><city>SACRAMENTO</city><latitude>38.633028</latitude><longitude>-121.526755</longitude><price>292000</price><sale_date>Tue May 20 00:00:00 EDT 2008</sale_date><sq__ft>2169</sq__ft><state>CA</state><street>3578 LOGGERHEAD WAY</street><type>Residential</type><zip>95834</zip></record><record><baths>2</baths><beds>3</beds><city>ROSEVILLE</city><latitude>38.752399</latitude><longitude>-121.330328</longitude><price>292000</price><sale_date>Tue May 20 00:00:00 EDT 2008</sale_date><sq__ft>1440</sq__ft><state>CA</state><street>1416 LOCKHART WAY</street><type>Residential</type><zip>95747</zip></record><record><baths>2</baths><beds>3</beds><city>FAIR OAKS</city><latitude>38.664552</latitude><longitude>-121.255937</longitude><price>293993</price><sale_date>Tue May 20 00:00:00 EDT 2008</sale_date><sq__ft>1527</sq__ft><state>CA</state><street>5413 BUENA VENTURA WAY</street><type>Residential</type><zip>95628</zip></record><record><baths>2</baths><beds>3</beds><city>ROSEVILLE</city><latitude>38.776327</latitude><longitude>-121.284514</longitude><price>294000</price><sale_date>Tue May 20 00:00:00 EDT 2008</sale_date><sq__ft>1401</sq__ft><state>CA</state><street>37 WHITE BIRCH CT</street><type>Residential</type><zip>95678</zip></record><record><baths>2</baths><beds>3</beds><city>SACRAMENTO</city><latitude>38.65783</latitude><longitude>-121.456842</longitude><price>296769</price><sale_date>Tue May 20 00:00:00 EDT 2008</sale_date><sq__ft>1411</sq__ft><state>CA</state><street>405 MARLIN SPIKE WAY</street><type>Residential</type><zip>95838</zip></record><record><baths>4</baths><beds>4</beds><city>LINCOLN</city><latitude>38.864864</latitude><longitude>-121.313988</longitude><price>297500</price><sale_date>Tue May 20 00:00:00 EDT 2008</sale_date><sq__ft>0</sq__ft><state>CA</state><street>1102 CHESLEY LN</street><type>Residential</type><zip>95648</zip></record><record><baths>0</baths><beds>0</beds><city>GOLD RIVER</city><latitude>38.625289</latitude><longitude>-121.260286</longitude><price>300000</price><sale_date>Tue May 20 00:00:00 EDT 2008</sale_date><sq__ft>0</sq__ft><state>CA</state><street>11281 STANFORD COURT LN Unit 604</street><type>Condo</type><zip>95670</zip></record><record><baths>1</baths><beds>3</beds><city>RIO LINDA</city><latitude>38.700553</latitude><longitude>-121.452223</longitude><price>300000</price><sale_date>Tue May 20 00:00:00 EDT 2008</sale_date><sq__ft>1284</sq__ft><state>CA</state><street>7320 6TH ST</street><type>Residential</type><zip>95673</zip></record><record><baths>3</baths><beds>4</beds><city>GALT</city><latitude>38.272942</latitude><longitude>-121.289148</longitude><price>300000</price><sale_date>Tue May 20 00:00:00 EDT 2008</sale_date><sq__ft>2307</sq__ft><state>CA</state><street>993 MANTON CT</street><type>Residential</type><zip>95632</zip></record><record><baths>2</baths><beds>3</beds><city>PLACERVILLE</city><latitude>38.694559</latitude><longitude>-120.848157</longitude><price>300000</price><sale_date>Tue May 20 00:00:00 EDT 2008</sale_date><sq__ft>1329</sq__ft><state>CA</state><street>4487 PANORAMA DR</street><type>Residential</type><zip>95667</zip></record><record><baths>2</baths><beds>4</beds><city>SACRAMENTO</city><latitude>38.677454</latitude><longitude>-121.494791</longitude><price>300500</price><sale_date>Tue May 20 00:00:00 EDT 2008</sale_date><sq__ft>1910</sq__ft><state>CA</state><street>5651 OVERLEAF WAY</street><type>Residential</type><zip>95835</zip></record><record><baths>2</baths><beds>3</beds><city>GOLD RIVER</city><latitude>38.628732</latitude><longitude>-121.261149</longitude><price>305000</price><sale_date>Tue May 20 00:00:00 EDT 2008</sale_date><sq__ft>1981</sq__ft><state>CA</state><street>2015 PROMONTORY POINT LN</street><type>Residential</type><zip>95670</zip></record><record><baths>0</baths><beds>0</beds><city>ROSEVILLE</city><latitude>38.772771</latitude><longitude>-121.364877</longitude><price>306500</price><sale_date>Tue May 20 00:00:00 EDT 2008</sale_date><sq__ft>0</sq__ft><state>CA</state><street>3224 PARKHAM DR</street><type>Residential</type><zip>95747</zip></record><record><baths>0</baths><beds>0</beds><city>SACRAMENTO</city><latitude>38.668692</latitude><longitude>-121.54549</longitude><price>312500</price><sale_date>Tue May 20 00:00:00 EDT 2008</sale_date><sq__ft>0</sq__ft><state>CA</state><street>15 VANESSA PL</street><type>Residential</type><zip>95835</zip></record><record><baths>3</baths><beds>5</beds><city>LINCOLN</city><latitude>38.866409</latitude><longitude>-121.308485</longitude><price>315000</price><sale_date>Tue May 20 00:00:00 EDT 2008</sale_date><sq__ft>0</sq__ft><state>CA</state><street>1312 RENISON LN</street><type>Residential</type><zip>95648</zip></record><record><baths>2</baths><beds>4</beds><city>SACRAMENTO</city><latitude>38.447353</latitude><longitude>-121.434969</longitude><price>319789</price><sale_date>Tue May 20 00:00:00 EDT 2008</sale_date><sq__ft>2205</sq__ft><state>CA</state><street>8 RIVER RAFT CT</street><type>Residential</type><zip>95823</zip></record><record><baths>2</baths><beds>2</beds><city>LINCOLN</city><latitude>38.849924</latitude><longitude>-121.275729</longitude><price>330000</price><sale_date>Tue May 20 00:00:00 EDT 2008</sale_date><sq__ft>1449</sq__ft><state>CA</state><street>2251 LAMPLIGHT LN</street><type>Residential</type><zip>95648</zip></record><record><baths>2</baths><beds>3</beds><city>FOLSOM</city><latitude>38.667834</latitude><longitude>-121.168578</longitude><price>330000</price><sale_date>Tue May 20 00:00:00 EDT 2008</sale_date><sq__ft>1258</sq__ft><state>CA</state><street>106 FARHAM DR</street><type>Residential</type><zip>95630</zip></record><record><baths>2</baths><beds>3</beds><city>ELK GROVE</city><latitude>38.387014</latitude><longitude>-121.440967</longitude><price>331000</price><sale_date>Tue May 20 00:00:00 EDT 2008</sale_date><sq__ft>2575</sq__ft><state>CA</state><street>5405 NECTAR CIR</street><type>Residential</type><zip>95757</zip></record><record><baths>1</baths><beds>2</beds><city>SACRAMENTO</city><latitude>38.542727</latitude><longitude>-121.442449</longitude><price>334000</price><sale_date>Tue May 20 00:00:00 EDT 2008</sale_date><sq__ft>539</sq__ft><state>CA</state><street>5411 10TH AVE</street><type>Residential</type><zip>95820</zip></record><record><baths>3</baths><beds>4</beds><city>RANCHO CORDOVA</city><latitude>38.573488</latitude><longitude>-121.282809</longitude><price>336000</price><sale_date>Tue May 20 00:00:00 EDT 2008</sale_date><sq__ft>2208</sq__ft><state>CA</state><street>3512 RAINSONG CIR</street><type>Residential</type><zip>95670</zip></record><record><baths>1</baths><beds>3</beds><city>SACRAMENTO</city><latitude>38.563805</latitude><longitude>-121.436395</longitude><price>339000</price><sale_date>Tue May 20 00:00:00 EDT 2008</sale_date><sq__ft>1108</sq__ft><state>CA</state><street>1106 55TH ST</street><type>Residential</type><zip>95819</zip></record><record><baths>2</baths><beds>4</beds><city>FOLSOM</city><latitude>38.652002</latitude><longitude>-121.129504</longitude><price>339000</price><sale_date>Tue May 20 00:00:00 EDT 2008</sale_date><sq__ft>1595</sq__ft><state>CA</state><street>411 ILLSLEY WAY</street><type>Residential</type><zip>95630</zip></record><record><baths>2</baths><beds>4</beds><city>GALT</city><latitude>38.279581</latitude><longitude>-121.300828</longitude><price>345000</price><sale_date>Tue May 20 00:00:00 EDT 2008</sale_date><sq__ft>2159</sq__ft><state>CA</state><street>796 BUTTERCUP CIR</street><type>Residential</type><zip>95632</zip></record><record><baths>3</baths><beds>4</beds><city>PLACERVILLE</city><latitude>38.738141</latitude><longitude>-120.784145</longitude><price>350000</price><sale_date>Tue May 20 00:00:00 EDT 2008</sale_date><sq__ft>2295</sq__ft><state>CA</state><street>1230 SANDRA CIR</street><type>Residential</type><zip>95667</zip></record><record><baths>2</baths><beds>3</beds><city>ROSEVILLE</city><latitude>38.782094</latitude><longitude>-121.297133</longitude><price>356000</price><sale_date>Tue May 20 00:00:00 EDT 2008</sale_date><sq__ft>1838</sq__ft><state>CA</state><street>318 ANACAPA DR</street><type>Residential</type><zip>95678</zip></record><record><baths>2</baths><beds>4</beds><city>SACRAMENTO</city><latitude>38.487409</latitude><longitude>-121.461413</longitude><price>361745</price><sale_date>Tue May 20 00:00:00 EDT 2008</sale_date><sq__ft>1900</sq__ft><state>CA</state><street>3975 SHINING STAR DR</street><type>Residential</type><zip>95823</zip></record><record><baths>2</baths><beds>4</beds><city>SACRAMENTO</city><latitude>38.591822</latitude><longitude>-121.478644</longitude><price>361948</price><sale_date>Tue May 20 00:00:00 EDT 2008</sale_date><sq__ft>1718</sq__ft><state>CA</state><street>1620 BASLER ST</street><type>Residential</type><zip>95811</zip></record><record><baths>3</baths><beds>5</beds><city>ELK GROVE</city><latitude>38.405224</latitude><longitude>-121.479275</longitude><price>370000</price><sale_date>Tue May 20 00:00:00 EDT 2008</sale_date><sq__ft>3389</sq__ft><state>CA</state><street>9688 NATURE TRAIL WAY</street><type>Residential</type><zip>95757</zip></record><record><baths>2</baths><beds>4</beds><city>ROCKLIN</city><latitude>38.778691</latitude><longitude>-121.204292</longitude><price>380000</price><sale_date>Tue May 20 00:00:00 EDT 2008</sale_date><sq__ft>0</sq__ft><state>CA</state><street>5924 TANUS CIR</street><type>Residential</type><zip>95677</zip></record><record><baths>4</baths><beds>5</beds><city>ELK GROVE</city><latitude>38.405527</latitude><longitude>-121.431746</longitude><price>385000</price><sale_date>Tue May 20 00:00:00 EDT 2008</sale_date><sq__ft>3260</sq__ft><state>CA</state><street>9629 CEDAR OAK WAY</street><type>Residential</type><zip>95757</zip></record><record><baths>2</baths><beds>3</beds><city>CAMERON PARK</city><latitude>38.664225</latitude><longitude>-121.007173</longitude><price>399000</price><sale_date>Tue May 20 00:00:00 EDT 2008</sale_date><sq__ft>2016</sq__ft><state>CA</state><street>3429 FERNBROOK CT</street><type>Residential</type><zip>95682</zip></record><record><baths>2</baths><beds>4</beds><city>ROCKLIN</city><latitude>38.805749</latitude><longitude>-121.280931</longitude><price>402000</price><sale_date>Tue May 20 00:00:00 EDT 2008</sale_date><sq__ft>2607</sq__ft><state>CA</state><street>2121 HANNAH WAY</street><type>Residential</type><zip>95765</zip></record><record><baths>3</baths><beds>4</beds><city>ELK GROVE</city><latitude>38.390465</latitude><longitude>-121.443479</longitude><price>406026</price><sale_date>Tue May 20 00:00:00 EDT 2008</sale_date><sq__ft>2724</sq__ft><state>CA</state><street>10104 ANNIE ST</street><type>Residential</type><zip>95757</zip></record><record><baths>4</baths><beds>5</beds><city>GALT</city><latitude>38.271646</latitude><longitude>-121.286848</longitude><price>420000</price><sale_date>Tue May 20 00:00:00 EDT 2008</sale_date><sq__ft>3746</sq__ft><state>CA</state><street>1092 MAUGHAM CT</street><type>Residential</type><zip>95632</zip></record><record><baths>0</baths><beds>0</beds><city>RANCHO CORDOVA</city><latitude>38.527502</latitude><longitude>-121.233492</longitude><price>425000</price><sale_date>Tue May 20 00:00:00 EDT 2008</sale_date><sq__ft>0</sq__ft><state>CA</state><street>5404 ALMOND FALLS WAY</street><type>Residential</type><zip>95742</zip></record><record><baths>2</baths><beds>4</beds><city>RANCHO MURIETA</city><latitude>38.512602</latitude><longitude>-121.087233</longitude><price>425000</price><sale_date>Tue May 20 00:00:00 EDT 2008</sale_date><sq__ft>3192</sq__ft><state>CA</state><street>6306 CONEJO</street><type>Residential</type><zip>95683</zip></record><record><baths>0</baths><beds>0</beds><city>SACRAMENTO</city><latitude>38.650221</latitude><longitude>-121.551704</longitude><price>433500</price><sale_date>Tue May 20 00:00:00 EDT 2008</sale_date><sq__ft>0</sq__ft><state>CA</state><street>14 CASA VATONI PL</street><type>Residential</type><zip>95834</zip></record><record><baths>3</baths><beds>4</beds><city>LINCOLN</city><latitude>38.857635</latitude><longitude>-121.311375</longitude><price>436746</price><sale_date>Tue May 20 00:00:00 EDT 2008</sale_date><sq__ft>0</sq__ft><state>CA</state><street>1456 EAGLESFIELD LN</street><type>Residential</type><zip>95648</zip></record><record><baths>3</baths><beds>5</beds><city>EL DORADO HILLS</city><latitude>38.679136</latitude><longitude>-121.034329</longitude><price>438700</price><sale_date>Tue May 20 00:00:00 EDT 2008</sale_date><sq__ft>0</sq__ft><state>CA</state><street>4100 BOTHWELL CIR</street><type>Residential</type><zip>95762</zip></record><record><baths>1</baths><beds>2</beds><city>SACRAMENTO</city><latitude>38.582604</latitude><longitude>-121.47576</longitude><price>445000</price><sale_date>Tue May 20 00:00:00 EDT 2008</sale_date><sq__ft>1247</sq__ft><state>CA</state><street>427 21ST ST</street><type>Residential</type><zip>95811</zip></record><record><baths>2</baths><beds>4</beds><city>FOLSOM</city><latitude>38.676306</latitude><longitude>-121.09954</longitude><price>450000</price><sale_date>Tue May 20 00:00:00 EDT 2008</sale_date><sq__ft>2581</sq__ft><state>CA</state><street>1044 GALSTON DR</street><type>Residential</type><zip>95630</zip></record><record><baths>1</baths><beds>3</beds><city>SACRAMENTO</city><latitude>38.646374</latitude><longitude>-121.353658</longitude><price>460000</price><sale_date>Tue May 20 00:00:00 EDT 2008</sale_date><sq__ft>2068</sq__ft><state>CA</state><street>4440 SYCAMORE AVE</street><type>Residential</type><zip>9584